{
"type": "FeatureCollection",
"features": [
{ "type": "Feature", "properties": { "date": "2019-09-16", "time": "2019-09-16 10:27:31", "year": 2019, "month": 9, "day": 16, "hour": 10, "minute": 27, "second": 31, "from_user": 12068822381, "filename": "lfw2019", "compound_sentiment": 0.0, "city_name": "London, United Kingdom", "zipcode": "WC2R 1LA", "streetaddress": "Strand London", "latitude": 51.5117744, "longitude": -0.1178626 }, "geometry": { "type": "Point", "coordinates": [ -0.1178626, 51.5117744 ] } },
{ "type": "Feature", "properties": { "date": "2019-09-14", "time": "2019-09-14 19:28:29", "year": 2019, "month": 9, "day": 14, "hour": 19, "minute": 28, "second": 29, "from_user": 12068822381, "filename": "lfw2019", "compound_sentiment": 0.0, "city_name": "London, United Kingdom", "zipcode": "WC2R 1EA", "streetaddress": "180 The Strand", "latitude": 51.5122712, "longitude": -0.1149584 }, "geometry": { "type": "Point", "coordinates": [ -0.1149584, 51.5122712 ] } },
{ "type": "Feature", "properties": { "date": "2019-12-29", "time": "2019-12-29 19:26:49", "year": 2019, "month": 12, "day": 29, "hour": 19, "minute": 26, "second": 49, "from_user": 2962941946, "filename": "lfw2019", "compound_sentiment": 0.0, "city_name": "London, United Kingdom", "zipcode": "WC1B 4DA", "streetaddress": "Bloomsbury Square", "latitude": 51.5190971, "longitude": -0.1222659 }, "geometry": { "type": "Point", "coordinates": [ -0.1222659, 51.5190971 ] } },
{ "type": "Feature", "properties": { "date": "2019-12-26", "time": "2019-12-26 18:34:54", "year": 2019, "month": 12, "day": 26, "hour": 18, "minute": 34, "second": 54, "from_user": 4106824799, "filename": "lfw2019", "compound_sentiment": 0.9802, "city_name": "London, United Kingdom", "zipcode": "E16QL", "streetaddress": "91 Brick Lane", "latitude": 51.5211443, "longitude": -0.0720346 }, "geometry": { "type": "Point", "coordinates": [ -0.0720346, 51.5211443 ] } },
{ "type": "Feature", "properties": { "date": "2019-12-16", "time": "2019-12-16 19:11:23", "year": 2019, "month": 12, "day": 16, "hour": 19, "minute": 11, "second": 23, "from_user": 2962941946, "filename": "lfw2019", "compound_sentiment": 0.0, "city_name": "London, United Kingdom", "zipcode": "WC1B 4DA", "streetaddress": "3763 Southampton Row ", "latitude": 51.5190076, "longitude": -0.1215615 }, "geometry": { "type": "Point", "coordinates": [ -0.1215615, 51.519007599999988 ] } },
{ "type": "Feature", "properties": { "date": "2019-12-10", "time": "2019-12-10 12:44:30", "year": 2019, "month": 12, "day": 10, "hour": 12, "minute": 44, "second": 30, "from_user": 470097240, "filename": "lfw2019", "compound_sentiment": 0.0, "city_name": "London, United Kingdom", "zipcode": "W1D 4JG", "streetaddress": "56 Wardour St", "latitude": 51.512678, "longitude": -0.1331235 }, "geometry": { "type": "Point", "coordinates": [ -0.1331235, 51.512678 ] } },
{ "type": "Feature", "properties": { "date": "2019-12-02", "time": "2019-12-02 18:57:11", "year": 2019, "month": 12, "day": 2, "hour": 18, "minute": 57, "second": 11, "from_user": 8711464231, "filename": "lfw2019", "compound_sentiment": -0.5904, "city_name": "London, United Kingdom", "zipcode": "WC2R 1LA", "streetaddress": "Strand London", "latitude": 51.5117744, "longitude": -0.1178626 }, "geometry": { "type": "Point", "coordinates": [ -0.1178626, 51.5117744 ] } },
{ "type": "Feature", "properties": { "date": "2019-12-01", "time": "2019-12-01 09:25:42", "year": 2019, "month": 12, "day": 1, "hour": 9, "minute": 25, "second": 42, "from_user": 8711464231, "filename": "lfw2019", "compound_sentiment": -0.5904, "city_name": "London, United Kingdom", "zipcode": "WC2R 1LA", "streetaddress": "Strand London", "latitude": 51.5117744, "longitude": -0.1178626 }, "geometry": { "type": "Point", "coordinates": [ -0.1178626, 51.5117744 ] } },
{ "type": "Feature", "properties": { "date": "2019-11-29", "time": "2019-11-29 07:42:59", "year": 2019, "month": 11, "day": 29, "hour": 7, "minute": 42, "second": 59, "from_user": 8711464231, "filename": "lfw2019", "compound_sentiment": -0.5904, "city_name": "London, United Kingdom", "zipcode": "WC2R 1LA", "streetaddress": "Strand London", "latitude": 51.5117744, "longitude": -0.1178626 }, "geometry": { "type": "Point", "coordinates": [ -0.1178626, 51.5117744 ] } },
{ "type": "Feature", "properties": { "date": "2019-11-27", "time": "2019-11-27 17:54:16", "year": 2019, "month": 11, "day": 27, "hour": 17, "minute": 54, "second": 16, "from_user": 539764830, "filename": "lfw2019", "compound_sentiment": 0.2263, "city_name": "London, United Kingdom", "zipcode": "SE1 4NA", "streetaddress": "34 Long Lane ", "latitude": 51.5009314, "longitude": -0.091161 }, "geometry": { "type": "Point", "coordinates": [ -0.091161, 51.5009314 ] } },
{ "type": "Feature", "properties": { "date": "2019-11-26", "time": "2019-11-26 18:01:20", "year": 2019, "month": 11, "day": 26, "hour": 18, "minute": 1, "second": 20, "from_user": 4017456661, "filename": "lfw2019", "compound_sentiment": 0.3818, "city_name": "London, United Kingdom", "zipcode": "NW1 8AB", "streetaddress": "Stables Market", "latitude": 51.5420455, "longitude": -0.1469688 }, "geometry": { "type": "Point", "coordinates": [ -0.1469688, 51.5420455 ] } },
{ "type": "Feature", "properties": { "date": "2019-11-26", "time": "2019-11-26 18:00:47", "year": 2019, "month": 11, "day": 26, "hour": 18, "minute": 0, "second": 47, "from_user": 4017456661, "filename": "lfw2019", "compound_sentiment": 0.0, "city_name": "London, United Kingdom", "zipcode": "NW1 8AB", "streetaddress": "Stables Market", "latitude": 51.5420455, "longitude": -0.1469688 }, "geometry": { "type": "Point", "coordinates": [ -0.1469688, 51.5420455 ] } },
{ "type": "Feature", "properties": { "date": "2019-11-26", "time": "2019-11-26 17:59:59", "year": 2019, "month": 11, "day": 26, "hour": 17, "minute": 59, "second": 59, "from_user": 4017456661, "filename": "lfw2019", "compound_sentiment": 0.5106, "city_name": "London, United Kingdom", "zipcode": "NW1 8AB", "streetaddress": "Stables Market", "latitude": 51.5420455, "longitude": -0.1469688 }, "geometry": { "type": "Point", "coordinates": [ -0.1469688, 51.5420455 ] } },
{ "type": "Feature", "properties": { "date": "2019-11-26", "time": "2019-11-26 12:36:45", "year": 2019, "month": 11, "day": 26, "hour": 12, "minute": 36, "second": 45, "from_user": 539764830, "filename": "lfw2019", "compound_sentiment": 0.0, "city_name": "London, United Kingdom", "zipcode": "W1K 7AA", "streetaddress": "140 Park Lane", "latitude": 51.5131428, "longitude": -0.1576714 }, "geometry": { "type": "Point", "coordinates": [ -0.1576714, 51.5131428 ] } },
{ "type": "Feature", "properties": { "date": "2019-11-25", "time": "2019-11-25 17:26:05", "year": 2019, "month": 11, "day": 25, "hour": 17, "minute": 26, "second": 5, "from_user": 539764830, "filename": "lfw2019", "compound_sentiment": 0.9609, "city_name": "London, United Kingdom", "zipcode": "W1U7DJ", "streetaddress": "66 Baker Street", "latitude": 51.5192158, "longitude": -0.1560382 }, "geometry": { "type": "Point", "coordinates": [ -0.1560382, 51.5192158 ] } },
{ "type": "Feature", "properties": { "date": "2019-11-25", "time": "2019-11-25 07:05:12", "year": 2019, "month": 11, "day": 25, "hour": 7, "minute": 5, "second": 12, "from_user": 539764830, "filename": "lfw2019", "compound_sentiment": 0.9353, "city_name": "London, United Kingdom", "zipcode": "SE1 7PB", "streetaddress": "Riverside Building County Hall Westminster Bridge Road", "latitude": 51.5031864, "longitude": -0.1195192 }, "geometry": { "type": "Point", "coordinates": [ -0.1195192, 51.5031864 ] } },
{ "type": "Feature", "properties": { "date": "2019-11-19", "time": "2019-11-19 22:46:12", "year": 2019, "month": 11, "day": 19, "hour": 22, "minute": 46, "second": 12, "from_user": 45271634, "filename": "lfw2019", "compound_sentiment": 0.2023, "city_name": "London, United Kingdom", "zipcode": "WC1B 4DA", "streetaddress": "3763 Southampton Row ", "latitude": 51.5190076, "longitude": -0.1215615 }, "geometry": { "type": "Point", "coordinates": [ -0.1215615, 51.519007599999988 ] } },
{ "type": "Feature", "properties": { "date": "2019-11-19", "time": "2019-11-19 22:46:05", "year": 2019, "month": 11, "day": 19, "hour": 22, "minute": 46, "second": 5, "from_user": 1749204261, "filename": "lfw2019", "compound_sentiment": 0.2023, "city_name": "London, United Kingdom", "zipcode": "WC1B 4DA", "streetaddress": "3763 Southampton Row ", "latitude": 51.5190076, "longitude": -0.1215615 }, "geometry": { "type": "Point", "coordinates": [ -0.1215615, 51.519007599999988 ] } },
{ "type": "Feature", "properties": { "date": "2019-11-19", "time": "2019-11-19 22:46:01", "year": 2019, "month": 11, "day": 19, "hour": 22, "minute": 46, "second": 1, "from_user": 1252882248, "filename": "lfw2019", "compound_sentiment": 0.2023, "city_name": "London, United Kingdom", "zipcode": "WC1B 4DA", "streetaddress": "3763 Southampton Row ", "latitude": 51.5190076, "longitude": -0.1215615 }, "geometry": { "type": "Point", "coordinates": [ -0.1215615, 51.519007599999988 ] } },
{ "type": "Feature", "properties": { "date": "2019-11-18", "time": "2019-11-18 08:01:54", "year": 2019, "month": 11, "day": 18, "hour": 8, "minute": 1, "second": 54, "from_user": 4771138598, "filename": "lfw2019", "compound_sentiment": 0.0, "city_name": "London, United Kingdom", "zipcode": "WC2R 1EA", "streetaddress": "180 strand", "latitude": 51.5122712, "longitude": -0.1149584 }, "geometry": { "type": "Point", "coordinates": [ -0.1149584, 51.5122712 ] } },
{ "type": "Feature", "properties": { "date": "2019-11-17", "time": "2019-11-17 18:46:35", "year": 2019, "month": 11, "day": 17, "hour": 18, "minute": 46, "second": 35, "from_user": 4771138598, "filename": "lfw2019", "compound_sentiment": 0.0, "city_name": "London, United Kingdom", "zipcode": "WC2R 1EA", "streetaddress": "180 strand", "latitude": 51.5122712, "longitude": -0.1149584 }, "geometry": { "type": "Point", "coordinates": [ -0.1149584, 51.5122712 ] } },
{ "type": "Feature", "properties": { "date": "2019-11-15", "time": "2019-11-15 15:11:10", "year": 2019, "month": 11, "day": 15, "hour": 15, "minute": 11, "second": 10, "from_user": 4771138598, "filename": "lfw2019", "compound_sentiment": 0.0, "city_name": "London, United Kingdom", "zipcode": "WC2R 1EA", "streetaddress": "180 strand", "latitude": 51.5122712, "longitude": -0.1149584 }, "geometry": { "type": "Point", "coordinates": [ -0.1149584, 51.5122712 ] } },
{ "type": "Feature", "properties": { "date": "2019-11-14", "time": "2019-11-14 08:42:10", "year": 2019, "month": 11, "day": 14, "hour": 8, "minute": 42, "second": 10, "from_user": 8711464231, "filename": "lfw2019", "compound_sentiment": 0.0, "city_name": "London, United Kingdom", "zipcode": "WC2R 1LA", "streetaddress": "Strand London", "latitude": 51.5117744, "longitude": -0.1178626 }, "geometry": { "type": "Point", "coordinates": [ -0.1178626, 51.5117744 ] } },
{ "type": "Feature", "properties": { "date": "2019-11-13", "time": "2019-11-13 18:52:52", "year": 2019, "month": 11, "day": 13, "hour": 18, "minute": 52, "second": 52, "from_user": 2962941946, "filename": "lfw2019", "compound_sentiment": 0.0, "city_name": "London, United Kingdom", "zipcode": "WC1B 4DA", "streetaddress": "Bloomsbury Square", "latitude": 51.5190971, "longitude": -0.1222659 }, "geometry": { "type": "Point", "coordinates": [ -0.1222659, 51.5190971 ] } },
{ "type": "Feature", "properties": { "date": "2019-11-11", "time": "2019-11-11 07:45:04", "year": 2019, "month": 11, "day": 11, "hour": 7, "minute": 45, "second": 4, "from_user": 231276312, "filename": "lfw2019", "compound_sentiment": 0.0, "city_name": "London, United Kingdom", "zipcode": "W1J 9", "streetaddress": "The London Pavillion 1 Piccadilly Circus", "latitude": 51.5103752, "longitude": -0.1339076 }, "geometry": { "type": "Point", "coordinates": [ -0.1339076, 51.5103752 ] } },
{ "type": "Feature", "properties": { "date": "2019-11-07", "time": "2019-11-07 17:31:42", "year": 2019, "month": 11, "day": 7, "hour": 17, "minute": 31, "second": 42, "from_user": 206660219, "filename": "lfw2019", "compound_sentiment": 0.9422, "city_name": "London, United Kingdom", "zipcode": "WC2R 0EZ", "streetaddress": "The Savoy Strand", "latitude": 51.5104568, "longitude": -0.1210495 }, "geometry": { "type": "Point", "coordinates": [ -0.1210495, 51.5104568 ] } },
{ "type": "Feature", "properties": { "date": "2019-11-03", "time": "2019-11-03 15:55:47", "year": 2019, "month": 11, "day": 3, "hour": 15, "minute": 55, "second": 47, "from_user": 1703999925, "filename": "lfw2019", "compound_sentiment": 0.0, "city_name": "London, United Kingdom", "zipcode": "WC2R 1EA", "streetaddress": "180 strand", "latitude": 51.5122712, "longitude": -0.1149584 }, "geometry": { "type": "Point", "coordinates": [ -0.1149584, 51.5122712 ] } },
{ "type": "Feature", "properties": { "date": "2019-10-30", "time": "2019-10-30 09:02:32", "year": 2019, "month": 10, "day": 30, "hour": 9, "minute": 2, "second": 32, "from_user": 3020592958, "filename": "lfw2019", "compound_sentiment": 0.0, "city_name": "London, United Kingdom", "zipcode": "SE1 9PG", "streetaddress": "1  2 Hatfields Waterloo", "latitude": 51.5076087, "longitude": -0.1079974 }, "geometry": { "type": "Point", "coordinates": [ -0.1079974, 51.5076087 ] } },
{ "type": "Feature", "properties": { "date": "2019-10-29", "time": "2019-10-29 16:38:06", "year": 2019, "month": 10, "day": 29, "hour": 16, "minute": 38, "second": 6, "from_user": 196802586, "filename": "lfw2019", "compound_sentiment": 0.0, "city_name": "London, United Kingdom", "zipcode": "W1S2UE", "streetaddress": "160  162 New Bond Street", "latitude": 51.510606, "longitude": -0.1428115 }, "geometry": { "type": "Point", "coordinates": [ -0.1428115, 51.510606 ] } },
{ "type": "Feature", "properties": { "date": "2019-10-28", "time": "2019-10-28 02:22:52", "year": 2019, "month": 10, "day": 28, "hour": 2, "minute": 22, "second": 52, "from_user": 674824527, "filename": "lfw2019", "compound_sentiment": 0.0, "city_name": "London, United Kingdom", "zipcode": "W1D 6QF", "streetaddress": "10 Wardour Street", "latitude": 51.5107901, "longitude": -0.13143 }, "geometry": { "type": "Point", "coordinates": [ -0.13143, 51.510790099999987 ] } },
{ "type": "Feature", "properties": { "date": "2019-10-27", "time": "2019-10-27 19:12:23", "year": 2019, "month": 10, "day": 27, "hour": 19, "minute": 12, "second": 23, "from_user": 2962941946, "filename": "lfw2019", "compound_sentiment": 0.0, "city_name": "London, United Kingdom", "zipcode": "WC1B 4DA", "streetaddress": "Bloomsbury Square", "latitude": 51.5190971, "longitude": -0.1222659 }, "geometry": { "type": "Point", "coordinates": [ -0.1222659, 51.5190971 ] } },
{ "type": "Feature", "properties": { "date": "2019-10-23", "time": "2019-10-23 17:03:48", "year": 2019, "month": 10, "day": 23, "hour": 17, "minute": 3, "second": 48, "from_user": 4106824799, "filename": "lfw2019", "compound_sentiment": 0.9796, "city_name": "London, United Kingdom", "zipcode": "WC2R 1EA", "streetaddress": "180 strand", "latitude": 51.5122712, "longitude": -0.1149584 }, "geometry": { "type": "Point", "coordinates": [ -0.1149584, 51.5122712 ] } },
{ "type": "Feature", "properties": { "date": "2019-10-23", "time": "2019-10-23 13:06:44", "year": 2019, "month": 10, "day": 23, "hour": 13, "minute": 6, "second": 44, "from_user": 12876005845, "filename": "lfw2019", "compound_sentiment": 0.5859, "city_name": "London, United Kingdom", "zipcode": "EC2M 4YE", "streetaddress": "6  Devonshire Square", "latitude": 51.5162344, "longitude": -0.0779844 }, "geometry": { "type": "Point", "coordinates": [ -0.0779844, 51.516234399999988 ] } },
{ "type": "Feature", "properties": { "date": "2019-10-22", "time": "2019-10-22 18:04:41", "year": 2019, "month": 10, "day": 22, "hour": 18, "minute": 4, "second": 41, "from_user": 2962941946, "filename": "lfw2019", "compound_sentiment": 0.0, "city_name": "London, United Kingdom", "zipcode": "WC1B 4DA", "streetaddress": "Bloomsbury Square", "latitude": 51.5190971, "longitude": -0.1222659 }, "geometry": { "type": "Point", "coordinates": [ -0.1222659, 51.5190971 ] } },
{ "type": "Feature", "properties": { "date": "2019-10-22", "time": "2019-10-22 16:32:28", "year": 2019, "month": 10, "day": 22, "hour": 16, "minute": 32, "second": 28, "from_user": 2866514124, "filename": "lfw2019", "compound_sentiment": 0.0, "city_name": "London, United Kingdom", "zipcode": "WC2E 9DD", "streetaddress": "Bow Street", "latitude": 51.5133517, "longitude": -0.1220818 }, "geometry": { "type": "Point", "coordinates": [ -0.1220818, 51.5133517 ] } },
{ "type": "Feature", "properties": { "date": "2019-10-22", "time": "2019-10-22 15:54:06", "year": 2019, "month": 10, "day": 22, "hour": 15, "minute": 54, "second": 6, "from_user": 2680770652, "filename": "lfw2019", "compound_sentiment": 0.0, "city_name": "London, United Kingdom", "zipcode": "WC1B 4DA", "streetaddress": "3763 Southampton Row ", "latitude": 51.5190076, "longitude": -0.1215615 }, "geometry": { "type": "Point", "coordinates": [ -0.1215615, 51.519007599999988 ] } },
{ "type": "Feature", "properties": { "date": "2019-10-22", "time": "2019-10-22 15:06:42", "year": 2019, "month": 10, "day": 22, "hour": 15, "minute": 6, "second": 42, "from_user": 1703999925, "filename": "lfw2019", "compound_sentiment": 0.0, "city_name": "London, United Kingdom", "zipcode": "W1F 7LD", "streetaddress": "14 Argyll St", "latitude": 51.5151358, "longitude": -0.1410969 }, "geometry": { "type": "Point", "coordinates": [ -0.1410969, 51.5151358 ] } },
{ "type": "Feature", "properties": { "date": "2019-10-18", "time": "2019-10-18 10:26:05", "year": 2019, "month": 10, "day": 18, "hour": 10, "minute": 26, "second": 5, "from_user": 279240165, "filename": "lfw2019", "compound_sentiment": 0.2732, "city_name": "London, United Kingdom", "zipcode": "E17 4SD", "streetaddress": "1 Hoe Street Walthamstow", "latitude": 51.5899121, "longitude": -0.0173239 }, "geometry": { "type": "Point", "coordinates": [ -0.0173239, 51.5899121 ] } },
{ "type": "Feature", "properties": { "date": "2019-10-18", "time": "2019-10-18 10:21:40", "year": 2019, "month": 10, "day": 18, "hour": 10, "minute": 21, "second": 40, "from_user": 279240165, "filename": "lfw2019", "compound_sentiment": 0.0, "city_name": "London, United Kingdom", "zipcode": "E17 4SD", "streetaddress": "1 Hoe Street Walthamstow", "latitude": 51.5899121, "longitude": -0.0173239 }, "geometry": { "type": "Point", "coordinates": [ -0.0173239, 51.5899121 ] } },
{ "type": "Feature", "properties": { "date": "2019-10-18", "time": "2019-10-18 10:10:34", "year": 2019, "month": 10, "day": 18, "hour": 10, "minute": 10, "second": 34, "from_user": 279240165, "filename": "lfw2019", "compound_sentiment": 0.0, "city_name": "London, United Kingdom", "zipcode": "E17 4SD", "streetaddress": "1 Hoe Street Walthamstow", "latitude": 51.5899121, "longitude": -0.0173239 }, "geometry": { "type": "Point", "coordinates": [ -0.0173239, 51.5899121 ] } },
{ "type": "Feature", "properties": { "date": "2019-10-17", "time": "2019-10-17 19:44:17", "year": 2019, "month": 10, "day": 17, "hour": 19, "minute": 44, "second": 17, "from_user": 697946936, "filename": "lfw2019", "compound_sentiment": 0.0, "city_name": "London, United Kingdom", "zipcode": "WC2R 1EA", "streetaddress": "180 The Strand", "latitude": 51.5122712, "longitude": -0.1149584 }, "geometry": { "type": "Point", "coordinates": [ -0.1149584, 51.5122712 ] } },
{ "type": "Feature", "properties": { "date": "2019-10-17", "time": "2019-10-17 12:33:59", "year": 2019, "month": 10, "day": 17, "hour": 12, "minute": 33, "second": 59, "from_user": 1927093645, "filename": "lfw2019", "compound_sentiment": 0.0, "city_name": "London, United Kingdom", "zipcode": "E1 6GY", "streetaddress": "BOXPARK 210 BETHNAL GREEN ROAD SHOREDITCH", "latitude": 51.523539, "longitude": -0.0759578 }, "geometry": { "type": "Point", "coordinates": [ -0.0759578, 51.523539 ] } },
{ "type": "Feature", "properties": { "date": "2019-10-16", "time": "2019-10-16 19:22:22", "year": 2019, "month": 10, "day": 16, "hour": 19, "minute": 22, "second": 22, "from_user": 1691929106, "filename": "lfw2019", "compound_sentiment": 0.0, "city_name": "London, United Kingdom", "zipcode": "WC2R 1EA", "streetaddress": "180 strand", "latitude": 51.5122712, "longitude": -0.1149584 }, "geometry": { "type": "Point", "coordinates": [ -0.1149584, 51.5122712 ] } },
{ "type": "Feature", "properties": { "date": "2019-10-16", "time": "2019-10-16 11:51:43", "year": 2019, "month": 10, "day": 16, "hour": 11, "minute": 51, "second": 43, "from_user": 2866514124, "filename": "lfw2019", "compound_sentiment": 0.0, "city_name": "London, United Kingdom", "zipcode": "WC2E 9DD", "streetaddress": "Bow Street", "latitude": 51.5133517, "longitude": -0.1220818 }, "geometry": { "type": "Point", "coordinates": [ -0.1220818, 51.5133517 ] } },
{ "type": "Feature", "properties": { "date": "2019-10-16", "time": "2019-10-16 11:30:53", "year": 2019, "month": 10, "day": 16, "hour": 11, "minute": 30, "second": 53, "from_user": 8596242466, "filename": "lfw2019", "compound_sentiment": 0.0, "city_name": "London, United Kingdom", "zipcode": "WC2R 1EA", "streetaddress": "180 strand", "latitude": 51.5122712, "longitude": -0.1149584 }, "geometry": { "type": "Point", "coordinates": [ -0.1149584, 51.5122712 ] } },
{ "type": "Feature", "properties": { "date": "2019-09-24", "time": "2019-09-24 20:37:15", "year": 2019, "month": 9, "day": 24, "hour": 20, "minute": 37, "second": 15, "from_user": 705817875, "filename": "lfw2019", "compound_sentiment": 0.9926, "city_name": "London, United Kingdom", "zipcode": "WC2R 1EA", "streetaddress": "180 strand", "latitude": 51.5122712, "longitude": -0.1149584 }, "geometry": { "type": "Point", "coordinates": [ -0.1149584, 51.5122712 ] } },
{ "type": "Feature", "properties": { "date": "2019-09-20", "time": "2019-09-20 17:19:25", "year": 2019, "month": 9, "day": 20, "hour": 17, "minute": 19, "second": 25, "from_user": 293916878, "filename": "lfw2019", "compound_sentiment": 0.0, "city_name": "London, United Kingdom", "zipcode": "WC1B 4DA", "streetaddress": "3763 Southampton Row ", "latitude": 51.5190076, "longitude": -0.1215615 }, "geometry": { "type": "Point", "coordinates": [ -0.1215615, 51.519007599999988 ] } },
{ "type": "Feature", "properties": { "date": "2019-10-14", "time": "2019-10-14 18:48:31", "year": 2019, "month": 10, "day": 14, "hour": 18, "minute": 48, "second": 31, "from_user": 4796850702, "filename": "lfw2019", "compound_sentiment": 0.7506, "city_name": "London, United Kingdom", "zipcode": "W1T1", "streetaddress": "20 Newman Street", "latitude": 51.5175219, "longitude": -0.1354318 }, "geometry": { "type": "Point", "coordinates": [ -0.1354318, 51.5175219 ] } },
{ "type": "Feature", "properties": { "date": "2019-10-14", "time": "2019-10-14 11:55:26", "year": 2019, "month": 10, "day": 14, "hour": 11, "minute": 55, "second": 26, "from_user": 346906336, "filename": "lfw2019", "compound_sentiment": -0.2003, "city_name": "London, United Kingdom", "zipcode": "W1T 3NP", "streetaddress": "10 Berners Street", "latitude": 51.5167826, "longitude": -0.135958 }, "geometry": { "type": "Point", "coordinates": [ -0.135958, 51.5167826 ] } },
{ "type": "Feature", "properties": { "date": "2019-10-12", "time": "2019-10-12 14:15:22", "year": 2019, "month": 10, "day": 12, "hour": 14, "minute": 15, "second": 22, "from_user": 1973108606, "filename": "lfw2019", "compound_sentiment": 0.4588, "city_name": "London, United Kingdom", "zipcode": "WC1B 4DA", "streetaddress": "Bloomsbury Square", "latitude": 51.5190971, "longitude": -0.1222659 }, "geometry": { "type": "Point", "coordinates": [ -0.1222659, 51.5190971 ] } },
{ "type": "Feature", "properties": { "date": "2019-10-11", "time": "2019-10-11 20:40:27", "year": 2019, "month": 10, "day": 11, "hour": 20, "minute": 40, "second": 27, "from_user": 190120270, "filename": "lfw2019", "compound_sentiment": 0.0, "city_name": "London, United Kingdom", "zipcode": "WC2R 1EA", "streetaddress": "180 strand", "latitude": 51.5122712, "longitude": -0.1149584 }, "geometry": { "type": "Point", "coordinates": [ -0.1149584, 51.5122712 ] } },
{ "type": "Feature", "properties": { "date": "2019-10-11", "time": "2019-10-11 16:01:13", "year": 2019, "month": 10, "day": 11, "hour": 16, "minute": 1, "second": 13, "from_user": 1378157478, "filename": "lfw2019", "compound_sentiment": 0.8402, "city_name": "London, United Kingdom", "zipcode": "W2 1JU", "streetaddress": "225 Edgware Road", "latitude": 51.519376, "longitude": -0.1695259 }, "geometry": { "type": "Point", "coordinates": [ -0.1695259, 51.519376 ] } },
{ "type": "Feature", "properties": { "date": "2019-10-11", "time": "2019-10-11 13:16:30", "year": 2019, "month": 10, "day": 11, "hour": 13, "minute": 16, "second": 30, "from_user": 4316944, "filename": "lfw2019", "compound_sentiment": 0.7943, "city_name": "London, United Kingdom", "zipcode": "SE1 7NN", "streetaddress": "leake street", "latitude": 51.5020099, "longitude": -0.115738 }, "geometry": { "type": "Point", "coordinates": [ -0.115738, 51.5020099 ] } },
{ "type": "Feature", "properties": { "date": "2019-10-11", "time": "2019-10-11 04:00:14", "year": 2019, "month": 10, "day": 11, "hour": 4, "minute": 0, "second": 14, "from_user": 3418683000, "filename": "lfw2019", "compound_sentiment": 0.0, "city_name": "London, United Kingdom", "zipcode": "WC2R 1EA", "streetaddress": "180 The Strand", "latitude": 51.5122712, "longitude": -0.1149584 }, "geometry": { "type": "Point", "coordinates": [ -0.1149584, 51.5122712 ] } },
{ "type": "Feature", "properties": { "date": "2019-10-10", "time": "2019-10-10 10:00:22", "year": 2019, "month": 10, "day": 10, "hour": 10, "minute": 0, "second": 22, "from_user": 3418683000, "filename": "lfw2019", "compound_sentiment": 0.0, "city_name": "London, United Kingdom", "zipcode": "WC2R 1EA", "streetaddress": "180 The Strand", "latitude": 51.5122712, "longitude": -0.1149584 }, "geometry": { "type": "Point", "coordinates": [ -0.1149584, 51.5122712 ] } },
{ "type": "Feature", "properties": { "date": "2019-10-10", "time": "2019-10-10 07:46:12", "year": 2019, "month": 10, "day": 10, "hour": 7, "minute": 46, "second": 12, "from_user": 225546011, "filename": "lfw2019", "compound_sentiment": 0.7712, "city_name": "London, United Kingdom", "zipcode": "WC2R 1EA", "streetaddress": "180 The Strand", "latitude": 51.5122712, "longitude": -0.1149584 }, "geometry": { "type": "Point", "coordinates": [ -0.1149584, 51.5122712 ] } },
{ "type": "Feature", "properties": { "date": "2019-10-09", "time": "2019-10-09 16:58:56", "year": 2019, "month": 10, "day": 9, "hour": 16, "minute": 58, "second": 56, "from_user": 1378157478, "filename": "lfw2019", "compound_sentiment": 0.9711, "city_name": "London, United Kingdom", "zipcode": "W2 1JU", "streetaddress": "225 Edgware Road", "latitude": 51.519376, "longitude": -0.1695259 }, "geometry": { "type": "Point", "coordinates": [ -0.1695259, 51.519376 ] } },
{ "type": "Feature", "properties": { "date": "2019-10-09", "time": "2019-10-09 05:37:12", "year": 2019, "month": 10, "day": 9, "hour": 5, "minute": 37, "second": 12, "from_user": 190120270, "filename": "lfw2019", "compound_sentiment": 0.0, "city_name": "London, United Kingdom", "zipcode": "WC2R 1EA", "streetaddress": "180 strand", "latitude": 51.5122712, "longitude": -0.1149584 }, "geometry": { "type": "Point", "coordinates": [ -0.1149584, 51.5122712 ] } },
{ "type": "Feature", "properties": { "date": "2019-10-08", "time": "2019-10-08 18:28:20", "year": 2019, "month": 10, "day": 8, "hour": 18, "minute": 28, "second": 20, "from_user": 614270279, "filename": "lfw2019", "compound_sentiment": 0.0, "city_name": "London, United Kingdom", "zipcode": "WC2R 1LA", "streetaddress": "Strand London", "latitude": 51.5117744, "longitude": -0.1178626 }, "geometry": { "type": "Point", "coordinates": [ -0.1178626, 51.5117744 ] } },
{ "type": "Feature", "properties": { "date": "2019-10-08", "time": "2019-10-08 14:02:23", "year": 2019, "month": 10, "day": 8, "hour": 14, "minute": 2, "second": 23, "from_user": 4316944, "filename": "lfw2019", "compound_sentiment": 0.0, "city_name": "London, United Kingdom", "zipcode": "SE1 7NN", "streetaddress": "Leake Street", "latitude": 51.5020099, "longitude": -0.115738 }, "geometry": { "type": "Point", "coordinates": [ -0.115738, 51.5020099 ] } },
{ "type": "Feature", "properties": { "date": "2019-10-08", "time": "2019-10-08 08:26:39", "year": 2019, "month": 10, "day": 8, "hour": 8, "minute": 26, "second": 39, "from_user": 225546011, "filename": "lfw2019", "compound_sentiment": 0.0, "city_name": "London, United Kingdom", "zipcode": "WC2R 1EA", "streetaddress": "180 The Strand", "latitude": 51.5122712, "longitude": -0.1149584 }, "geometry": { "type": "Point", "coordinates": [ -0.1149584, 51.5122712 ] } },
{ "type": "Feature", "properties": { "date": "2019-10-07", "time": "2019-10-07 20:09:43", "year": 2019, "month": 10, "day": 7, "hour": 20, "minute": 9, "second": 43, "from_user": 1973108606, "filename": "lfw2019", "compound_sentiment": 0.93, "city_name": "London, United Kingdom", "zipcode": "WC2R 1LA", "streetaddress": "Strand London", "latitude": 51.5117744, "longitude": -0.1178626 }, "geometry": { "type": "Point", "coordinates": [ -0.1178626, 51.5117744 ] } },
{ "type": "Feature", "properties": { "date": "2019-10-07", "time": "2019-10-07 19:34:15", "year": 2019, "month": 10, "day": 7, "hour": 19, "minute": 34, "second": 15, "from_user": 196802586, "filename": "lfw2019", "compound_sentiment": 0.3612, "city_name": "London, United Kingdom", "zipcode": "W1S2UE", "streetaddress": "160  162 New Bond Street", "latitude": 51.510606, "longitude": -0.1428115 }, "geometry": { "type": "Point", "coordinates": [ -0.1428115, 51.510606 ] } },
{ "type": "Feature", "properties": { "date": "2019-10-07", "time": "2019-10-07 18:32:00", "year": 2019, "month": 10, "day": 7, "hour": 18, "minute": 32, "second": 0, "from_user": 1378157478, "filename": "lfw2019", "compound_sentiment": 0.8588, "city_name": "London, United Kingdom", "zipcode": "W2 1JU", "streetaddress": "225 Edgware Road", "latitude": 51.519376, "longitude": -0.1695259 }, "geometry": { "type": "Point", "coordinates": [ -0.1695259, 51.519376 ] } },
{ "type": "Feature", "properties": { "date": "2019-10-07", "time": "2019-10-07 14:00:16", "year": 2019, "month": 10, "day": 7, "hour": 14, "minute": 0, "second": 16, "from_user": 3418683000, "filename": "lfw2019", "compound_sentiment": 0.0, "city_name": "London, United Kingdom", "zipcode": "WC2R 1EA", "streetaddress": "180 strand", "latitude": 51.5122712, "longitude": -0.1149584 }, "geometry": { "type": "Point", "coordinates": [ -0.1149584, 51.5122712 ] } },
{ "type": "Feature", "properties": { "date": "2019-10-06", "time": "2019-10-06 13:09:02", "year": 2019, "month": 10, "day": 6, "hour": 13, "minute": 9, "second": 2, "from_user": 721402510, "filename": "lfw2019", "compound_sentiment": 0.0, "city_name": "London, United Kingdom", "zipcode": "WC2R 1LA", "streetaddress": "Strand London", "latitude": 51.5117744, "longitude": -0.1178626 }, "geometry": { "type": "Point", "coordinates": [ -0.1178626, 51.5117744 ] } },
{ "type": "Feature", "properties": { "date": "2019-10-06", "time": "2019-10-06 13:06:07", "year": 2019, "month": 10, "day": 6, "hour": 13, "minute": 6, "second": 7, "from_user": 721402510, "filename": "lfw2019", "compound_sentiment": 0.0, "city_name": "London, United Kingdom", "zipcode": "WC2R 1LA", "streetaddress": "Strand London", "latitude": 51.5117744, "longitude": -0.1178626 }, "geometry": { "type": "Point", "coordinates": [ -0.1178626, 51.5117744 ] } },
{ "type": "Feature", "properties": { "date": "2019-10-06", "time": "2019-10-06 12:43:43", "year": 2019, "month": 10, "day": 6, "hour": 12, "minute": 43, "second": 43, "from_user": 5889092512, "filename": "lfw2019", "compound_sentiment": 0.0, "city_name": "London, United Kingdom", "zipcode": "WC2R 1EA", "streetaddress": "180 strand", "latitude": 51.5122712, "longitude": -0.1149584 }, "geometry": { "type": "Point", "coordinates": [ -0.1149584, 51.5122712 ] } },
{ "type": "Feature", "properties": { "date": "2019-10-06", "time": "2019-10-06 11:16:54", "year": 2019, "month": 10, "day": 6, "hour": 11, "minute": 16, "second": 54, "from_user": 4098073909, "filename": "lfw2019", "compound_sentiment": 0.0, "city_name": "London, United Kingdom", "zipcode": "WC2R 1EA", "streetaddress": "180 strand", "latitude": 51.5122712, "longitude": -0.1149584 }, "geometry": { "type": "Point", "coordinates": [ -0.1149584, 51.5122712 ] } },
{ "type": "Feature", "properties": { "date": "2019-10-06", "time": "2019-10-06 11:16:29", "year": 2019, "month": 10, "day": 6, "hour": 11, "minute": 16, "second": 29, "from_user": 4098073909, "filename": "lfw2019", "compound_sentiment": 0.0, "city_name": "London, United Kingdom", "zipcode": "WC2R 1EA", "streetaddress": "180 strand", "latitude": 51.5122712, "longitude": -0.1149584 }, "geometry": { "type": "Point", "coordinates": [ -0.1149584, 51.5122712 ] } },
{ "type": "Feature", "properties": { "date": "2019-10-06", "time": "2019-10-06 11:16:11", "year": 2019, "month": 10, "day": 6, "hour": 11, "minute": 16, "second": 11, "from_user": 4098073909, "filename": "lfw2019", "compound_sentiment": 0.0, "city_name": "London, United Kingdom", "zipcode": "WC2R 1EA", "streetaddress": "180 strand", "latitude": 51.5122712, "longitude": -0.1149584 }, "geometry": { "type": "Point", "coordinates": [ -0.1149584, 51.5122712 ] } },
{ "type": "Feature", "properties": { "date": "2019-10-06", "time": "2019-10-06 11:15:54", "year": 2019, "month": 10, "day": 6, "hour": 11, "minute": 15, "second": 54, "from_user": 4098073909, "filename": "lfw2019", "compound_sentiment": 0.0, "city_name": "London, United Kingdom", "zipcode": "WC2R 1EA", "streetaddress": "180 strand", "latitude": 51.5122712, "longitude": -0.1149584 }, "geometry": { "type": "Point", "coordinates": [ -0.1149584, 51.5122712 ] } },
{ "type": "Feature", "properties": { "date": "2019-10-06", "time": "2019-10-06 11:13:17", "year": 2019, "month": 10, "day": 6, "hour": 11, "minute": 13, "second": 17, "from_user": 4098073909, "filename": "lfw2019", "compound_sentiment": 0.0, "city_name": "London, United Kingdom", "zipcode": "WC2R 1EA", "streetaddress": "180 strand", "latitude": 51.5122712, "longitude": -0.1149584 }, "geometry": { "type": "Point", "coordinates": [ -0.1149584, 51.5122712 ] } },
{ "type": "Feature", "properties": { "date": "2019-10-06", "time": "2019-10-06 11:12:51", "year": 2019, "month": 10, "day": 6, "hour": 11, "minute": 12, "second": 51, "from_user": 4098073909, "filename": "lfw2019", "compound_sentiment": 0.0, "city_name": "London, United Kingdom", "zipcode": "WC2R 1EA", "streetaddress": "180 strand", "latitude": 51.5122712, "longitude": -0.1149584 }, "geometry": { "type": "Point", "coordinates": [ -0.1149584, 51.5122712 ] } },
{ "type": "Feature", "properties": { "date": "2019-10-06", "time": "2019-10-06 11:12:34", "year": 2019, "month": 10, "day": 6, "hour": 11, "minute": 12, "second": 34, "from_user": 4098073909, "filename": "lfw2019", "compound_sentiment": 0.0, "city_name": "London, United Kingdom", "zipcode": "WC2R 1EA", "streetaddress": "180 strand", "latitude": 51.5122712, "longitude": -0.1149584 }, "geometry": { "type": "Point", "coordinates": [ -0.1149584, 51.5122712 ] } },
{ "type": "Feature", "properties": { "date": "2019-10-06", "time": "2019-10-06 11:11:29", "year": 2019, "month": 10, "day": 6, "hour": 11, "minute": 11, "second": 29, "from_user": 4098073909, "filename": "lfw2019", "compound_sentiment": 0.0, "city_name": "London, United Kingdom", "zipcode": "WC2R 1EA", "streetaddress": "180 strand", "latitude": 51.5122712, "longitude": -0.1149584 }, "geometry": { "type": "Point", "coordinates": [ -0.1149584, 51.5122712 ] } },
{ "type": "Feature", "properties": { "date": "2019-10-06", "time": "2019-10-06 07:24:12", "year": 2019, "month": 10, "day": 6, "hour": 7, "minute": 24, "second": 12, "from_user": 225546011, "filename": "lfw2019", "compound_sentiment": 0.0, "city_name": "London, United Kingdom", "zipcode": "WC2R 1EA", "streetaddress": "180 The Strand", "latitude": 51.5122712, "longitude": -0.1149584 }, "geometry": { "type": "Point", "coordinates": [ -0.1149584, 51.5122712 ] } },
{ "type": "Feature", "properties": { "date": "2019-10-05", "time": "2019-10-05 21:30:21", "year": 2019, "month": 10, "day": 5, "hour": 21, "minute": 30, "second": 21, "from_user": 5383264155, "filename": "lfw2019", "compound_sentiment": -0.4019, "city_name": "London, United Kingdom", "zipcode": "WC2R 1EA", "streetaddress": "180 strand", "latitude": 51.5122712, "longitude": -0.1149584 }, "geometry": { "type": "Point", "coordinates": [ -0.1149584, 51.5122712 ] } },
{ "type": "Feature", "properties": { "date": "2019-10-05", "time": "2019-10-05 18:49:23", "year": 2019, "month": 10, "day": 5, "hour": 18, "minute": 49, "second": 23, "from_user": 5383264155, "filename": "lfw2019", "compound_sentiment": 0.128, "city_name": "London, United Kingdom", "zipcode": "WC2R 1EA", "streetaddress": "180 strand", "latitude": 51.5122712, "longitude": -0.1149584 }, "geometry": { "type": "Point", "coordinates": [ -0.1149584, 51.5122712 ] } },
{ "type": "Feature", "properties": { "date": "2019-10-05", "time": "2019-10-05 16:32:47", "year": 2019, "month": 10, "day": 5, "hour": 16, "minute": 32, "second": 47, "from_user": 5150741649, "filename": "lfw2019", "compound_sentiment": 0.0, "city_name": "London, United Kingdom", "zipcode": "WC2R 1LA", "streetaddress": "Strand London", "latitude": 51.5117744, "longitude": -0.1178626 }, "geometry": { "type": "Point", "coordinates": [ -0.1178626, 51.5117744 ] } },
{ "type": "Feature", "properties": { "date": "2019-10-05", "time": "2019-10-05 10:38:48", "year": 2019, "month": 10, "day": 5, "hour": 10, "minute": 38, "second": 48, "from_user": 8130285638, "filename": "lfw2019", "compound_sentiment": 0.8881, "city_name": "London, United Kingdom", "zipcode": "EC3V 4QT", "streetaddress": "140 Leadenhall St", "latitude": 51.5135857, "longitude": -0.0827732 }, "geometry": { "type": "Point", "coordinates": [ -0.0827732, 51.5135857 ] } },
{ "type": "Feature", "properties": { "date": "2019-10-05", "time": "2019-10-05 08:41:26", "year": 2019, "month": 10, "day": 5, "hour": 8, "minute": 41, "second": 26, "from_user": 216011608, "filename": "lfw2019", "compound_sentiment": 0.8519, "city_name": "London, United Kingdom", "zipcode": "WC2R 1EA", "streetaddress": "180 strand", "latitude": 51.5122712, "longitude": -0.1149584 }, "geometry": { "type": "Point", "coordinates": [ -0.1149584, 51.5122712 ] } },
{ "type": "Feature", "properties": { "date": "2019-10-04", "time": "2019-10-04 15:01:52", "year": 2019, "month": 10, "day": 4, "hour": 15, "minute": 1, "second": 52, "from_user": 539764830, "filename": "lfw2019", "compound_sentiment": 0.7964, "city_name": "London, United Kingdom", "zipcode": "W1J 9", "streetaddress": "The London Pavillion 1 Piccadilly Circus", "latitude": 51.5103752, "longitude": -0.1339076 }, "geometry": { "type": "Point", "coordinates": [ -0.1339076, 51.5103752 ] } },
{ "type": "Feature", "properties": { "date": "2019-10-04", "time": "2019-10-04 13:28:38", "year": 2019, "month": 10, "day": 4, "hour": 13, "minute": 28, "second": 38, "from_user": 4316944, "filename": "lfw2019", "compound_sentiment": 0.4767, "city_name": "London, United Kingdom", "zipcode": "SW1A 2EJ", "streetaddress": "2 Whitehall Court", "latitude": 51.5058942, "longitude": -0.1241837 }, "geometry": { "type": "Point", "coordinates": [ -0.1241837, 51.5058942 ] } },
{ "type": "Feature", "properties": { "date": "2019-10-04", "time": "2019-10-04 11:26:15", "year": 2019, "month": 10, "day": 4, "hour": 11, "minute": 26, "second": 15, "from_user": 8571547495, "filename": "lfw2019", "compound_sentiment": 0.0, "city_name": "London, United Kingdom", "zipcode": "WC2R 1EA", "streetaddress": "180 The Strand", "latitude": 51.5122712, "longitude": -0.1149584 }, "geometry": { "type": "Point", "coordinates": [ -0.1149584, 51.5122712 ] } },
{ "type": "Feature", "properties": { "date": "2019-10-04", "time": "2019-10-04 11:18:15", "year": 2019, "month": 10, "day": 4, "hour": 11, "minute": 18, "second": 15, "from_user": 8571547495, "filename": "lfw2019", "compound_sentiment": 0.0, "city_name": "London, United Kingdom", "zipcode": "WC2R 1EA", "streetaddress": "180 The Strand", "latitude": 51.5122712, "longitude": -0.1149584 }, "geometry": { "type": "Point", "coordinates": [ -0.1149584, 51.5122712 ] } },
{ "type": "Feature", "properties": { "date": "2019-10-04", "time": "2019-10-04 06:56:43", "year": 2019, "month": 10, "day": 4, "hour": 6, "minute": 56, "second": 43, "from_user": 225546011, "filename": "lfw2019", "compound_sentiment": 0.0, "city_name": "London, United Kingdom", "zipcode": "WC2R 1EA", "streetaddress": "180 The Strand", "latitude": 51.5122712, "longitude": -0.1149584 }, "geometry": { "type": "Point", "coordinates": [ -0.1149584, 51.5122712 ] } },
{ "type": "Feature", "properties": { "date": "2019-10-03", "time": "2019-10-03 17:56:11", "year": 2019, "month": 10, "day": 3, "hour": 17, "minute": 56, "second": 11, "from_user": 1973108606, "filename": "lfw2019", "compound_sentiment": 0.7579, "city_name": "London, United Kingdom", "zipcode": "WC2R 1EA", "streetaddress": "180 The Strand", "latitude": 51.5122712, "longitude": -0.1149584 }, "geometry": { "type": "Point", "coordinates": [ -0.1149584, 51.5122712 ] } },
{ "type": "Feature", "properties": { "date": "2019-10-03", "time": "2019-10-03 14:55:18", "year": 2019, "month": 10, "day": 3, "hour": 14, "minute": 55, "second": 18, "from_user": 4316944, "filename": "lfw2019", "compound_sentiment": 0.25, "city_name": "London, United Kingdom", "zipcode": "SW1A 2EJ", "streetaddress": "2 Whitehall Court", "latitude": 51.5058942, "longitude": -0.1241837 }, "geometry": { "type": "Point", "coordinates": [ -0.1241837, 51.5058942 ] } },
{ "type": "Feature", "properties": { "date": "2019-10-02", "time": "2019-10-02 21:28:14", "year": 2019, "month": 10, "day": 2, "hour": 21, "minute": 28, "second": 14, "from_user": 225546011, "filename": "lfw2019", "compound_sentiment": 0.0, "city_name": "London, United Kingdom", "zipcode": "WC2R 1EA", "streetaddress": "180 The Strand", "latitude": 51.5122712, "longitude": -0.1149584 }, "geometry": { "type": "Point", "coordinates": [ -0.1149584, 51.5122712 ] } },
{ "type": "Feature", "properties": { "date": "2019-10-02", "time": "2019-10-02 20:18:36", "year": 2019, "month": 10, "day": 2, "hour": 20, "minute": 18, "second": 36, "from_user": 2680770652, "filename": "lfw2019", "compound_sentiment": 0.0, "city_name": "London, United Kingdom", "zipcode": "WC2R 1EA", "streetaddress": "180 The Strand", "latitude": 51.5122712, "longitude": -0.1149584 }, "geometry": { "type": "Point", "coordinates": [ -0.1149584, 51.5122712 ] } },
{ "type": "Feature", "properties": { "date": "2019-10-02", "time": "2019-10-02 14:10:59", "year": 2019, "month": 10, "day": 2, "hour": 14, "minute": 10, "second": 59, "from_user": 539764830, "filename": "lfw2019", "compound_sentiment": 0.6369, "city_name": "London, United Kingdom", "zipcode": "SE1 7NN", "streetaddress": "18 Leake Street", "latitude": 51.5019648, "longitude": -0.1157019 }, "geometry": { "type": "Point", "coordinates": [ -0.1157019, 51.5019648 ] } },
{ "type": "Feature", "properties": { "date": "2019-10-02", "time": "2019-10-02 11:54:32", "year": 2019, "month": 10, "day": 2, "hour": 11, "minute": 54, "second": 32, "from_user": 8571547495, "filename": "lfw2019", "compound_sentiment": 0.0, "city_name": "London, United Kingdom", "zipcode": "WC2R 1EA", "streetaddress": "180 The Strand", "latitude": 51.5122712, "longitude": -0.1149584 }, "geometry": { "type": "Point", "coordinates": [ -0.1149584, 51.5122712 ] } },
{ "type": "Feature", "properties": { "date": "2019-10-02", "time": "2019-10-02 08:08:45", "year": 2019, "month": 10, "day": 2, "hour": 8, "minute": 8, "second": 45, "from_user": 18878123645, "filename": "lfw2019", "compound_sentiment": 0.5106, "city_name": "London, United Kingdom", "zipcode": "WC2R 1EA", "streetaddress": "180 strand", "latitude": 51.5122712, "longitude": -0.1149584 }, "geometry": { "type": "Point", "coordinates": [ -0.1149584, 51.5122712 ] } },
{ "type": "Feature", "properties": { "date": "2019-10-01", "time": "2019-10-01 18:55:47", "year": 2019, "month": 10, "day": 1, "hour": 18, "minute": 55, "second": 47, "from_user": 2866514124, "filename": "lfw2019", "compound_sentiment": 0.7506, "city_name": "London, United Kingdom", "zipcode": "WC2E 9DD", "streetaddress": "Bow Street", "latitude": 51.5133517, "longitude": -0.1220818 }, "geometry": { "type": "Point", "coordinates": [ -0.1220818, 51.5133517 ] } },
{ "type": "Feature", "properties": { "date": "2019-10-01", "time": "2019-10-01 17:34:08", "year": 2019, "month": 10, "day": 1, "hour": 17, "minute": 34, "second": 8, "from_user": 196802586, "filename": "lfw2019", "compound_sentiment": 0.4767, "city_name": "London, United Kingdom", "zipcode": "WC2R 1EA", "streetaddress": "180 strand", "latitude": 51.5122712, "longitude": -0.1149584 }, "geometry": { "type": "Point", "coordinates": [ -0.1149584, 51.5122712 ] } },
{ "type": "Feature", "properties": { "date": "2019-10-01", "time": "2019-10-01 17:19:10", "year": 2019, "month": 10, "day": 1, "hour": 17, "minute": 19, "second": 10, "from_user": 1557943347, "filename": "lfw2019", "compound_sentiment": 0.0, "city_name": "London, United Kingdom", "zipcode": "WC2R 2PH", "streetaddress": "Victoria Embankment", "latitude": 51.5109445, "longitude": -0.1132163 }, "geometry": { "type": "Point", "coordinates": [ -0.1132163, 51.5109445 ] } },
{ "type": "Feature", "properties": { "date": "2019-10-01", "time": "2019-10-01 12:33:53", "year": 2019, "month": 10, "day": 1, "hour": 12, "minute": 33, "second": 53, "from_user": 12876005845, "filename": "lfw2019", "compound_sentiment": 0.9557, "city_name": "London, United Kingdom", "zipcode": "EC2M 4WY", "streetaddress": "Devonshire Square", "latitude": 51.5162874, "longitude": -0.0789996 }, "geometry": { "type": "Point", "coordinates": [ -0.0789996, 51.5162874 ] } },
{ "type": "Feature", "properties": { "date": "2019-10-01", "time": "2019-10-01 10:09:05", "year": 2019, "month": 10, "day": 1, "hour": 10, "minute": 9, "second": 5, "from_user": 2947186718, "filename": "lfw2019", "compound_sentiment": 0.0, "city_name": "London, United Kingdom", "zipcode": "WC2R 1EA", "streetaddress": "180 strand", "latitude": 51.5122712, "longitude": -0.1149584 }, "geometry": { "type": "Point", "coordinates": [ -0.1149584, 51.5122712 ] } },
{ "type": "Feature", "properties": { "date": "2019-10-01", "time": "2019-10-01 07:49:09", "year": 2019, "month": 10, "day": 1, "hour": 7, "minute": 49, "second": 9, "from_user": 14725221, "filename": "lfw2019", "compound_sentiment": 0.8805, "city_name": "London, United Kingdom", "zipcode": "SW7 2AP", "streetaddress": "Kensington Gore", "latitude": 51.5010014, "longitude": -0.1781563 }, "geometry": { "type": "Point", "coordinates": [ -0.1781563, 51.5010014 ] } },
{ "type": "Feature", "properties": { "date": "2019-10-01", "time": "2019-10-01 07:04:57", "year": 2019, "month": 10, "day": 1, "hour": 7, "minute": 4, "second": 57, "from_user": 270045009, "filename": "lfw2019", "compound_sentiment": 0.9201, "city_name": "London, United Kingdom", "zipcode": "W1K 6ZQ", "streetaddress": "33 North Audley Street Mayfair", "latitude": 51.5126679, "longitude": -0.1534628 }, "geometry": { "type": "Point", "coordinates": [ -0.1534628, 51.5126679 ] } },
{ "type": "Feature", "properties": { "date": "2019-09-30", "time": "2019-09-30 18:05:58", "year": 2019, "month": 9, "day": 30, "hour": 18, "minute": 5, "second": 58, "from_user": 205824078, "filename": "lfw2019", "compound_sentiment": 0.94, "city_name": "London, United Kingdom", "zipcode": "WC2R 1EA", "streetaddress": "180 strand", "latitude": 51.5122712, "longitude": -0.1149584 }, "geometry": { "type": "Point", "coordinates": [ -0.1149584, 51.5122712 ] } },
{ "type": "Feature", "properties": { "date": "2019-09-30", "time": "2019-09-30 13:57:20", "year": 2019, "month": 9, "day": 30, "hour": 13, "minute": 57, "second": 20, "from_user": 225546011, "filename": "lfw2019", "compound_sentiment": 0.0, "city_name": "London, United Kingdom", "zipcode": "WC1B 4DA", "streetaddress": "3763 Southampton Row ", "latitude": 51.5190076, "longitude": -0.1215615 }, "geometry": { "type": "Point", "coordinates": [ -0.1215615, 51.519007599999988 ] } },
{ "type": "Feature", "properties": { "date": "2019-09-30", "time": "2019-09-30 13:26:12", "year": 2019, "month": 9, "day": 30, "hour": 13, "minute": 26, "second": 12, "from_user": 2866514124, "filename": "lfw2019", "compound_sentiment": 0.0, "city_name": "London, United Kingdom", "zipcode": "WC2E 9DD", "streetaddress": "Bow Street", "latitude": 51.5133517, "longitude": -0.1220818 }, "geometry": { "type": "Point", "coordinates": [ -0.1220818, 51.5133517 ] } },
{ "type": "Feature", "properties": { "date": "2019-09-29", "time": "2019-09-29 19:23:21", "year": 2019, "month": 9, "day": 29, "hour": 19, "minute": 23, "second": 21, "from_user": 4241256168, "filename": "lfw2019", "compound_sentiment": 0.4033, "city_name": "London, United Kingdom", "zipcode": "WC2R 1EA", "streetaddress": "180 strand", "latitude": 51.5122712, "longitude": -0.1149584 }, "geometry": { "type": "Point", "coordinates": [ -0.1149584, 51.5122712 ] } },
{ "type": "Feature", "properties": { "date": "2019-09-29", "time": "2019-09-29 17:25:21", "year": 2019, "month": 9, "day": 29, "hour": 17, "minute": 25, "second": 21, "from_user": 231276312, "filename": "lfw2019", "compound_sentiment": 0.0, "city_name": "London, United Kingdom", "zipcode": "EC4M 8AD", "streetaddress": "st pauls churchyard", "latitude": 51.5132913, "longitude": -0.098709 }, "geometry": { "type": "Point", "coordinates": [ -0.098709, 51.5132913 ] } },
{ "type": "Feature", "properties": { "date": "2019-09-29", "time": "2019-09-29 11:43:06", "year": 2019, "month": 9, "day": 29, "hour": 11, "minute": 43, "second": 6, "from_user": 338415591, "filename": "lfw2019", "compound_sentiment": -0.3887, "city_name": "London, United Kingdom", "zipcode": "WC2R 1EA", "streetaddress": "180 strand", "latitude": 51.5122712, "longitude": -0.1149584 }, "geometry": { "type": "Point", "coordinates": [ -0.1149584, 51.5122712 ] } },
{ "type": "Feature", "properties": { "date": "2019-09-29", "time": "2019-09-29 10:54:05", "year": 2019, "month": 9, "day": 29, "hour": 10, "minute": 54, "second": 5, "from_user": 1973108606, "filename": "lfw2019", "compound_sentiment": 0.8932, "city_name": "London, United Kingdom", "zipcode": "WC1B 4DA", "streetaddress": "Bloomsbury Square", "latitude": 51.5190971, "longitude": -0.1222659 }, "geometry": { "type": "Point", "coordinates": [ -0.1222659, 51.5190971 ] } },
{ "type": "Feature", "properties": { "date": "2019-09-28", "time": "2019-09-28 22:38:29", "year": 2019, "month": 9, "day": 28, "hour": 22, "minute": 38, "second": 29, "from_user": 314721346, "filename": "lfw2019", "compound_sentiment": 0.0, "city_name": "London, United Kingdom", "zipcode": "N4 2DH", "streetaddress": "14 Blackstock Rd", "latitude": 51.5641287, "longitude": -0.1037688 }, "geometry": { "type": "Point", "coordinates": [ -0.1037688, 51.5641287 ] } },
{ "type": "Feature", "properties": { "date": "2019-09-28", "time": "2019-09-28 16:57:12", "year": 2019, "month": 9, "day": 28, "hour": 16, "minute": 57, "second": 12, "from_user": 20160967747, "filename": "lfw2019", "compound_sentiment": 0.0, "city_name": "London, United Kingdom", "zipcode": "WC2R 1EA", "streetaddress": "180 strand", "latitude": 51.5122712, "longitude": -0.1149584 }, "geometry": { "type": "Point", "coordinates": [ -0.1149584, 51.5122712 ] } },
{ "type": "Feature", "properties": { "date": "2019-09-28", "time": "2019-09-28 16:50:03", "year": 2019, "month": 9, "day": 28, "hour": 16, "minute": 50, "second": 3, "from_user": 20160967747, "filename": "lfw2019", "compound_sentiment": 0.0, "city_name": "London, United Kingdom", "zipcode": "WC2R 1EA", "streetaddress": "180 strand", "latitude": 51.5122712, "longitude": -0.1149584 }, "geometry": { "type": "Point", "coordinates": [ -0.1149584, 51.5122712 ] } },
{ "type": "Feature", "properties": { "date": "2019-09-28", "time": "2019-09-28 16:10:04", "year": 2019, "month": 9, "day": 28, "hour": 16, "minute": 10, "second": 4, "from_user": 188431694, "filename": "lfw2019", "compound_sentiment": 0.3182, "city_name": "London, United Kingdom", "zipcode": "EC3N 4DJ", "streetaddress": "40 Trinity Square", "latitude": 51.5100962, "longitude": -0.0764301 }, "geometry": { "type": "Point", "coordinates": [ -0.0764301, 51.5100962 ] } },
{ "type": "Feature", "properties": { "date": "2019-09-28", "time": "2019-09-28 13:25:18", "year": 2019, "month": 9, "day": 28, "hour": 13, "minute": 25, "second": 18, "from_user": 4316944, "filename": "lfw2019", "compound_sentiment": 0.0, "city_name": "London, United Kingdom", "zipcode": "WC2R 2", "streetaddress": "Somerset House South Wing Strand", "latitude": 51.5107247, "longitude": -0.1168014 }, "geometry": { "type": "Point", "coordinates": [ -0.1168014, 51.5107247 ] } },
{ "type": "Feature", "properties": { "date": "2019-09-27", "time": "2019-09-27 21:49:56", "year": 2019, "month": 9, "day": 27, "hour": 21, "minute": 49, "second": 56, "from_user": 225546011, "filename": "lfw2019", "compound_sentiment": 0.0, "city_name": "London, United Kingdom", "zipcode": "WC2R 1EA", "streetaddress": "180 The Strand", "latitude": 51.5122712, "longitude": -0.1149584 }, "geometry": { "type": "Point", "coordinates": [ -0.1149584, 51.5122712 ] } },
{ "type": "Feature", "properties": { "date": "2019-09-27", "time": "2019-09-27 20:58:10", "year": 2019, "month": 9, "day": 27, "hour": 20, "minute": 58, "second": 10, "from_user": 5525756718, "filename": "lfw2019", "compound_sentiment": 0.0, "city_name": "London, United Kingdom", "zipcode": "WC2R 0EZ", "streetaddress": "The Savoy Strand", "latitude": 51.5104568, "longitude": -0.1210495 }, "geometry": { "type": "Point", "coordinates": [ -0.1210495, 51.5104568 ] } },
{ "type": "Feature", "properties": { "date": "2019-09-27", "time": "2019-09-27 20:15:05", "year": 2019, "month": 9, "day": 27, "hour": 20, "minute": 15, "second": 5, "from_user": 3177407669, "filename": "lfw2019", "compound_sentiment": 0.6705, "city_name": "London, United Kingdom", "zipcode": "WC2R 1EA", "streetaddress": "180 The Strand", "latitude": 51.5122712, "longitude": -0.1149584 }, "geometry": { "type": "Point", "coordinates": [ -0.1149584, 51.5122712 ] } },
{ "type": "Feature", "properties": { "date": "2019-09-27", "time": "2019-09-27 20:12:53", "year": 2019, "month": 9, "day": 27, "hour": 20, "minute": 12, "second": 53, "from_user": 4241256168, "filename": "lfw2019", "compound_sentiment": 0.0, "city_name": "London, United Kingdom", "zipcode": "WC2R 1EA", "streetaddress": "180 strand", "latitude": 51.5122712, "longitude": -0.1149584 }, "geometry": { "type": "Point", "coordinates": [ -0.1149584, 51.5122712 ] } },
{ "type": "Feature", "properties": { "date": "2019-09-27", "time": "2019-09-27 19:50:43", "year": 2019, "month": 9, "day": 27, "hour": 19, "minute": 50, "second": 43, "from_user": 47894073, "filename": "lfw2019", "compound_sentiment": 0.6833, "city_name": "London, United Kingdom", "zipcode": "SW7 1DW", "streetaddress": "171 Knightsbridge SW7 1DW", "latitude": 51.5013857, "longitude": -0.1628129 }, "geometry": { "type": "Point", "coordinates": [ -0.1628129, 51.5013857 ] } },
{ "type": "Feature", "properties": { "date": "2019-09-27", "time": "2019-09-27 18:44:28", "year": 2019, "month": 9, "day": 27, "hour": 18, "minute": 44, "second": 28, "from_user": 1973108606, "filename": "lfw2019", "compound_sentiment": 0.8555, "city_name": "London, United Kingdom", "zipcode": "WC2R 1LA", "streetaddress": "Strand London", "latitude": 51.5117744, "longitude": -0.1178626 }, "geometry": { "type": "Point", "coordinates": [ -0.1178626, 51.5117744 ] } },
{ "type": "Feature", "properties": { "date": "2019-09-27", "time": "2019-09-27 16:14:31", "year": 2019, "month": 9, "day": 27, "hour": 16, "minute": 14, "second": 31, "from_user": 2866514124, "filename": "lfw2019", "compound_sentiment": 0.7978, "city_name": "London, United Kingdom", "zipcode": "WC2E 9DD", "streetaddress": "Bow Street", "latitude": 51.5133517, "longitude": -0.1220818 }, "geometry": { "type": "Point", "coordinates": [ -0.1220818, 51.5133517 ] } },
{ "type": "Feature", "properties": { "date": "2019-09-27", "time": "2019-09-27 16:03:00", "year": 2019, "month": 9, "day": 27, "hour": 16, "minute": 3, "second": 0, "from_user": 4144947699, "filename": "lfw2019", "compound_sentiment": -0.3956, "city_name": "London, United Kingdom", "zipcode": "WC2R 0EZ", "streetaddress": "The Savoy Strand", "latitude": 51.5104568, "longitude": -0.1210495 }, "geometry": { "type": "Point", "coordinates": [ -0.1210495, 51.5104568 ] } },
{ "type": "Feature", "properties": { "date": "2019-09-27", "time": "2019-09-27 15:49:20", "year": 2019, "month": 9, "day": 27, "hour": 15, "minute": 49, "second": 20, "from_user": 265562255, "filename": "lfw2019", "compound_sentiment": 0.9648, "city_name": "London, United Kingdom", "zipcode": "NW1 8AB", "streetaddress": "Stables Market", "latitude": 51.5420455, "longitude": -0.1469688 }, "geometry": { "type": "Point", "coordinates": [ -0.1469688, 51.5420455 ] } },
{ "type": "Feature", "properties": { "date": "2019-09-27", "time": "2019-09-27 15:16:05", "year": 2019, "month": 9, "day": 27, "hour": 15, "minute": 16, "second": 5, "from_user": 1378157478, "filename": "lfw2019", "compound_sentiment": 0.5994, "city_name": "London, United Kingdom", "zipcode": "W2 1JU", "streetaddress": "225 Edgware Road", "latitude": 51.519376, "longitude": -0.1695259 }, "geometry": { "type": "Point", "coordinates": [ -0.1695259, 51.519376 ] } },
{ "type": "Feature", "properties": { "date": "2019-09-27", "time": "2019-09-27 14:20:45", "year": 2019, "month": 9, "day": 27, "hour": 14, "minute": 20, "second": 45, "from_user": 4316944, "filename": "lfw2019", "compound_sentiment": 0.0, "city_name": "London, United Kingdom", "zipcode": "WC2R 2", "streetaddress": "Somerset House South Wing Strand", "latitude": 51.5107247, "longitude": -0.1168014 }, "geometry": { "type": "Point", "coordinates": [ -0.1168014, 51.5107247 ] } },
{ "type": "Feature", "properties": { "date": "2019-09-27", "time": "2019-09-27 13:43:08", "year": 2019, "month": 9, "day": 27, "hour": 13, "minute": 43, "second": 8, "from_user": 8443776171, "filename": "lfw2019", "compound_sentiment": 0.0, "city_name": "London, United Kingdom", "zipcode": "SW1A1", "streetaddress": "Park Place", "latitude": 51.5063161, "longitude": -0.1401605 }, "geometry": { "type": "Point", "coordinates": [ -0.1401605, 51.5063161 ] } },
{ "type": "Feature", "properties": { "date": "2019-09-27", "time": "2019-09-27 13:40:50", "year": 2019, "month": 9, "day": 27, "hour": 13, "minute": 40, "second": 50, "from_user": 5478935629, "filename": "lfw2019", "compound_sentiment": 0.0, "city_name": "London, United Kingdom", "zipcode": "SW1A1", "streetaddress": "Park Place", "latitude": 51.5063161, "longitude": -0.1401605 }, "geometry": { "type": "Point", "coordinates": [ -0.1401605, 51.5063161 ] } },
{ "type": "Feature", "properties": { "date": "2019-09-27", "time": "2019-09-27 13:37:48", "year": 2019, "month": 9, "day": 27, "hour": 13, "minute": 37, "second": 48, "from_user": 219206556, "filename": "lfw2019", "compound_sentiment": 0.0, "city_name": "London, United Kingdom", "zipcode": "SW1A1", "streetaddress": "Park Place", "latitude": 51.5063161, "longitude": -0.1401605 }, "geometry": { "type": "Point", "coordinates": [ -0.1401605, 51.5063161 ] } },
{ "type": "Feature", "properties": { "date": "2019-09-27", "time": "2019-09-27 13:26:27", "year": 2019, "month": 9, "day": 27, "hour": 13, "minute": 26, "second": 27, "from_user": 12876005845, "filename": "lfw2019", "compound_sentiment": -0.2023, "city_name": "London, United Kingdom", "zipcode": "WC2R 1EA", "streetaddress": "180 The Strand", "latitude": 51.5122712, "longitude": -0.1149584 }, "geometry": { "type": "Point", "coordinates": [ -0.1149584, 51.5122712 ] } },
{ "type": "Feature", "properties": { "date": "2019-09-27", "time": "2019-09-27 12:48:34", "year": 2019, "month": 9, "day": 27, "hour": 12, "minute": 48, "second": 34, "from_user": 219206556, "filename": "lfw2019", "compound_sentiment": 0.0, "city_name": "London, United Kingdom", "zipcode": "SW1A1", "streetaddress": "Park Place", "latitude": 51.5063161, "longitude": -0.1401605 }, "geometry": { "type": "Point", "coordinates": [ -0.1401605, 51.5063161 ] } },
{ "type": "Feature", "properties": { "date": "2019-09-27", "time": "2019-09-27 12:42:52", "year": 2019, "month": 9, "day": 27, "hour": 12, "minute": 42, "second": 52, "from_user": 8443776171, "filename": "lfw2019", "compound_sentiment": 0.0, "city_name": "London, United Kingdom", "zipcode": "SW1A1", "streetaddress": "Park Place", "latitude": 51.5063161, "longitude": -0.1401605 }, "geometry": { "type": "Point", "coordinates": [ -0.1401605, 51.5063161 ] } },
{ "type": "Feature", "properties": { "date": "2019-09-27", "time": "2019-09-27 12:39:52", "year": 2019, "month": 9, "day": 27, "hour": 12, "minute": 39, "second": 52, "from_user": 5478935629, "filename": "lfw2019", "compound_sentiment": 0.0, "city_name": "London, United Kingdom", "zipcode": "SW1A1", "streetaddress": "Park Place", "latitude": 51.5063161, "longitude": -0.1401605 }, "geometry": { "type": "Point", "coordinates": [ -0.1401605, 51.5063161 ] } },
{ "type": "Feature", "properties": { "date": "2019-09-27", "time": "2019-09-27 11:35:40", "year": 2019, "month": 9, "day": 27, "hour": 11, "minute": 35, "second": 40, "from_user": 8443776171, "filename": "lfw2019", "compound_sentiment": 0.0, "city_name": "London, United Kingdom", "zipcode": "SW1A1", "streetaddress": "Park Place", "latitude": 51.5063161, "longitude": -0.1401605 }, "geometry": { "type": "Point", "coordinates": [ -0.1401605, 51.5063161 ] } },
{ "type": "Feature", "properties": { "date": "2019-09-27", "time": "2019-09-27 11:33:13", "year": 2019, "month": 9, "day": 27, "hour": 11, "minute": 33, "second": 13, "from_user": 5478935629, "filename": "lfw2019", "compound_sentiment": 0.0, "city_name": "London, United Kingdom", "zipcode": "SW1A1", "streetaddress": "Park Place", "latitude": 51.5063161, "longitude": -0.1401605 }, "geometry": { "type": "Point", "coordinates": [ -0.1401605, 51.5063161 ] } },
{ "type": "Feature", "properties": { "date": "2019-09-27", "time": "2019-09-27 11:30:18", "year": 2019, "month": 9, "day": 27, "hour": 11, "minute": 30, "second": 18, "from_user": 219206556, "filename": "lfw2019", "compound_sentiment": 0.0, "city_name": "London, United Kingdom", "zipcode": "SW1A1", "streetaddress": "Park Place", "latitude": 51.5063161, "longitude": -0.1401605 }, "geometry": { "type": "Point", "coordinates": [ -0.1401605, 51.5063161 ] } },
{ "type": "Feature", "properties": { "date": "2019-09-27", "time": "2019-09-27 10:45:03", "year": 2019, "month": 9, "day": 27, "hour": 10, "minute": 45, "second": 3, "from_user": 8443776171, "filename": "lfw2019", "compound_sentiment": 0.0, "city_name": "London, United Kingdom", "zipcode": "SW1A1", "streetaddress": "Park Place", "latitude": 51.5063161, "longitude": -0.1401605 }, "geometry": { "type": "Point", "coordinates": [ -0.1401605, 51.5063161 ] } },
{ "type": "Feature", "properties": { "date": "2019-09-27", "time": "2019-09-27 10:43:21", "year": 2019, "month": 9, "day": 27, "hour": 10, "minute": 43, "second": 21, "from_user": 5478935629, "filename": "lfw2019", "compound_sentiment": 0.0, "city_name": "London, United Kingdom", "zipcode": "SW1A1", "streetaddress": "Park Place", "latitude": 51.5063161, "longitude": -0.1401605 }, "geometry": { "type": "Point", "coordinates": [ -0.1401605, 51.5063161 ] } },
{ "type": "Feature", "properties": { "date": "2019-09-27", "time": "2019-09-27 10:41:04", "year": 2019, "month": 9, "day": 27, "hour": 10, "minute": 41, "second": 4, "from_user": 219206556, "filename": "lfw2019", "compound_sentiment": 0.0, "city_name": "London, United Kingdom", "zipcode": "SW1A1", "streetaddress": "Park Place", "latitude": 51.5063161, "longitude": -0.1401605 }, "geometry": { "type": "Point", "coordinates": [ -0.1401605, 51.5063161 ] } },
{ "type": "Feature", "properties": { "date": "2019-09-27", "time": "2019-09-27 10:03:34", "year": 2019, "month": 9, "day": 27, "hour": 10, "minute": 3, "second": 34, "from_user": 8443776171, "filename": "lfw2019", "compound_sentiment": 0.0, "city_name": "London, United Kingdom", "zipcode": "SW1A1", "streetaddress": "Park Place", "latitude": 51.5063161, "longitude": -0.1401605 }, "geometry": { "type": "Point", "coordinates": [ -0.1401605, 51.5063161 ] } },
{ "type": "Feature", "properties": { "date": "2019-09-27", "time": "2019-09-27 10:00:03", "year": 2019, "month": 9, "day": 27, "hour": 10, "minute": 0, "second": 3, "from_user": 5478935629, "filename": "lfw2019", "compound_sentiment": 0.0, "city_name": "London, United Kingdom", "zipcode": "SW1A1", "streetaddress": "Park Place", "latitude": 51.5063161, "longitude": -0.1401605 }, "geometry": { "type": "Point", "coordinates": [ -0.1401605, 51.5063161 ] } },
{ "type": "Feature", "properties": { "date": "2019-09-27", "time": "2019-09-27 08:14:57", "year": 2019, "month": 9, "day": 27, "hour": 8, "minute": 14, "second": 57, "from_user": 1557943347, "filename": "lfw2019", "compound_sentiment": 0.0, "city_name": "London, United Kingdom", "zipcode": "WC2R 1EA", "streetaddress": "180 The Strand", "latitude": 51.5122712, "longitude": -0.1149584 }, "geometry": { "type": "Point", "coordinates": [ -0.1149584, 51.5122712 ] } },
{ "type": "Feature", "properties": { "date": "2019-09-26", "time": "2019-09-26 20:53:06", "year": 2019, "month": 9, "day": 26, "hour": 20, "minute": 53, "second": 6, "from_user": 5879811996, "filename": "lfw2019", "compound_sentiment": 0.0, "city_name": "London, United Kingdom", "zipcode": "WC1B 4DA", "streetaddress": "Bloomsbury Square", "latitude": 51.5190971, "longitude": -0.1222659 }, "geometry": { "type": "Point", "coordinates": [ -0.1222659, 51.5190971 ] } },
{ "type": "Feature", "properties": { "date": "2019-09-26", "time": "2019-09-26 18:34:21", "year": 2019, "month": 9, "day": 26, "hour": 18, "minute": 34, "second": 21, "from_user": 5743780769, "filename": "lfw2019", "compound_sentiment": 0.0, "city_name": "London, United Kingdom", "zipcode": "WC1B 4DA", "streetaddress": "3763 Southampton Row ", "latitude": 51.5190076, "longitude": -0.1215615 }, "geometry": { "type": "Point", "coordinates": [ -0.1215615, 51.519007599999988 ] } },
{ "type": "Feature", "properties": { "date": "2019-09-26", "time": "2019-09-26 16:42:15", "year": 2019, "month": 9, "day": 26, "hour": 16, "minute": 42, "second": 15, "from_user": 20327986127, "filename": "lfw2019", "compound_sentiment": 0.6333, "city_name": "London, United Kingdom", "zipcode": "WC2R 1EA", "streetaddress": "180 The Strand", "latitude": 51.5122712, "longitude": -0.1149584 }, "geometry": { "type": "Point", "coordinates": [ -0.1149584, 51.5122712 ] } },
{ "type": "Feature", "properties": { "date": "2019-09-26", "time": "2019-09-26 15:53:09", "year": 2019, "month": 9, "day": 26, "hour": 15, "minute": 53, "second": 9, "from_user": 539764830, "filename": "lfw2019", "compound_sentiment": 0.9325, "city_name": "London, United Kingdom", "zipcode": "W1K 7AA", "streetaddress": "140 Park Lane", "latitude": 51.5131428, "longitude": -0.1576714 }, "geometry": { "type": "Point", "coordinates": [ -0.1576714, 51.5131428 ] } },
{ "type": "Feature", "properties": { "date": "2019-09-26", "time": "2019-09-26 15:15:36", "year": 2019, "month": 9, "day": 26, "hour": 15, "minute": 15, "second": 36, "from_user": 1973108606, "filename": "lfw2019", "compound_sentiment": 0.8424, "city_name": "London, United Kingdom", "zipcode": "WC1B 4DA", "streetaddress": "3763 Southampton Row ", "latitude": 51.5190076, "longitude": -0.1215615 }, "geometry": { "type": "Point", "coordinates": [ -0.1215615, 51.519007599999988 ] } },
{ "type": "Feature", "properties": { "date": "2019-09-26", "time": "2019-09-26 15:00:12", "year": 2019, "month": 9, "day": 26, "hour": 15, "minute": 0, "second": 12, "from_user": 215833394, "filename": "lfw2019", "compound_sentiment": 0.0, "city_name": "London, United Kingdom", "zipcode": "W1B 4DY", "streetaddress": "68 Regent Street", "latitude": 51.51, "longitude": -0.135833 }, "geometry": { "type": "Point", "coordinates": [ -0.135833, 51.51 ] } },
{ "type": "Feature", "properties": { "date": "2019-09-26", "time": "2019-09-26 14:41:35", "year": 2019, "month": 9, "day": 26, "hour": 14, "minute": 41, "second": 35, "from_user": 8581492848, "filename": "lfw2019", "compound_sentiment": 0.0, "city_name": "London, United Kingdom", "zipcode": "WC2R 1EA", "streetaddress": "180 strand", "latitude": 51.5122712, "longitude": -0.1149584 }, "geometry": { "type": "Point", "coordinates": [ -0.1149584, 51.5122712 ] } },
{ "type": "Feature", "properties": { "date": "2019-09-26", "time": "2019-09-26 12:29:38", "year": 2019, "month": 9, "day": 26, "hour": 12, "minute": 29, "second": 38, "from_user": 34144284, "filename": "lfw2019", "compound_sentiment": 0.5719, "city_name": "London, United Kingdom", "zipcode": "WC2R 1EA", "streetaddress": "180 strand", "latitude": 51.5122712, "longitude": -0.1149584 }, "geometry": { "type": "Point", "coordinates": [ -0.1149584, 51.5122712 ] } },
{ "type": "Feature", "properties": { "date": "2019-09-26", "time": "2019-09-26 12:21:00", "year": 2019, "month": 9, "day": 26, "hour": 12, "minute": 21, "second": 0, "from_user": 406473129, "filename": "lfw2019", "compound_sentiment": 0.7089, "city_name": "London, United Kingdom", "zipcode": "WC2R 1EA", "streetaddress": "180 strand", "latitude": 51.5122712, "longitude": -0.1149584 }, "geometry": { "type": "Point", "coordinates": [ -0.1149584, 51.5122712 ] } },
{ "type": "Feature", "properties": { "date": "2019-09-26", "time": "2019-09-26 08:18:25", "year": 2019, "month": 9, "day": 26, "hour": 8, "minute": 18, "second": 25, "from_user": 2866514124, "filename": "lfw2019", "compound_sentiment": 0.0, "city_name": "London, United Kingdom", "zipcode": "WC2E 9DD", "streetaddress": "Bow Street", "latitude": 51.5133517, "longitude": -0.1220818 }, "geometry": { "type": "Point", "coordinates": [ -0.1220818, 51.5133517 ] } },
{ "type": "Feature", "properties": { "date": "2019-09-26", "time": "2019-09-26 04:46:08", "year": 2019, "month": 9, "day": 26, "hour": 4, "minute": 46, "second": 8, "from_user": 539764830, "filename": "lfw2019", "compound_sentiment": 0.4939, "city_name": "London, United Kingdom", "zipcode": "W1K 7AA", "streetaddress": "140 Park Lane", "latitude": 51.5131428, "longitude": -0.1576714 }, "geometry": { "type": "Point", "coordinates": [ -0.1576714, 51.5131428 ] } },
{ "type": "Feature", "properties": { "date": "2019-09-25", "time": "2019-09-25 21:34:43", "year": 2019, "month": 9, "day": 25, "hour": 21, "minute": 34, "second": 43, "from_user": 5525756718, "filename": "lfw2019", "compound_sentiment": 0.0, "city_name": "London, United Kingdom", "zipcode": "WC2R 0EZ", "streetaddress": "The Savoy Strand", "latitude": 51.5104568, "longitude": -0.1210495 }, "geometry": { "type": "Point", "coordinates": [ -0.1210495, 51.5104568 ] } },
{ "type": "Feature", "properties": { "date": "2019-09-25", "time": "2019-09-25 20:59:37", "year": 2019, "month": 9, "day": 25, "hour": 20, "minute": 59, "second": 37, "from_user": 5525756718, "filename": "lfw2019", "compound_sentiment": 0.0, "city_name": "London, United Kingdom", "zipcode": "WC2R 0EZ", "streetaddress": "The Savoy Strand", "latitude": 51.5104568, "longitude": -0.1210495 }, "geometry": { "type": "Point", "coordinates": [ -0.1210495, 51.5104568 ] } },
{ "type": "Feature", "properties": { "date": "2019-09-25", "time": "2019-09-25 20:27:55", "year": 2019, "month": 9, "day": 25, "hour": 20, "minute": 27, "second": 55, "from_user": 5525756718, "filename": "lfw2019", "compound_sentiment": 0.0, "city_name": "London, United Kingdom", "zipcode": "WC2R 0EZ", "streetaddress": "The Savoy Strand", "latitude": 51.5104568, "longitude": -0.1210495 }, "geometry": { "type": "Point", "coordinates": [ -0.1210495, 51.5104568 ] } },
{ "type": "Feature", "properties": { "date": "2019-09-25", "time": "2019-09-25 20:09:32", "year": 2019, "month": 9, "day": 25, "hour": 20, "minute": 9, "second": 32, "from_user": 1378157478, "filename": "lfw2019", "compound_sentiment": 0.6588, "city_name": "London, United Kingdom", "zipcode": "W2 1JU", "streetaddress": "225 Edgware Road", "latitude": 51.519376, "longitude": -0.1695259 }, "geometry": { "type": "Point", "coordinates": [ -0.1695259, 51.519376 ] } },
{ "type": "Feature", "properties": { "date": "2019-09-25", "time": "2019-09-25 19:45:58", "year": 2019, "month": 9, "day": 25, "hour": 19, "minute": 45, "second": 58, "from_user": 207764914, "filename": "lfw2019", "compound_sentiment": 0.8316, "city_name": "London, United Kingdom", "zipcode": "WC2R 1EA", "streetaddress": "180 The Strand", "latitude": 51.5122712, "longitude": -0.1149584 }, "geometry": { "type": "Point", "coordinates": [ -0.1149584, 51.5122712 ] } },
{ "type": "Feature", "properties": { "date": "2019-09-25", "time": "2019-09-25 19:08:17", "year": 2019, "month": 9, "day": 25, "hour": 19, "minute": 8, "second": 17, "from_user": 3418683000, "filename": "lfw2019", "compound_sentiment": 0.0, "city_name": "London, United Kingdom", "zipcode": "NW1 8AB", "streetaddress": "Stables Market", "latitude": 51.5420455, "longitude": -0.1469688 }, "geometry": { "type": "Point", "coordinates": [ -0.1469688, 51.5420455 ] } },
{ "type": "Feature", "properties": { "date": "2019-09-25", "time": "2019-09-25 18:34:52", "year": 2019, "month": 9, "day": 25, "hour": 18, "minute": 34, "second": 52, "from_user": 3418683000, "filename": "lfw2019", "compound_sentiment": 0.0, "city_name": "London, United Kingdom", "zipcode": "NW1 8AB", "streetaddress": "Stables Market", "latitude": 51.5420455, "longitude": -0.1469688 }, "geometry": { "type": "Point", "coordinates": [ -0.1469688, 51.5420455 ] } },
{ "type": "Feature", "properties": { "date": "2019-09-25", "time": "2019-09-25 18:34:02", "year": 2019, "month": 9, "day": 25, "hour": 18, "minute": 34, "second": 2, "from_user": 2127633619, "filename": "lfw2019", "compound_sentiment": 0.807, "city_name": "London, United Kingdom", "zipcode": "WC2R 1EA", "streetaddress": "180 strand", "latitude": 51.5122712, "longitude": -0.1149584 }, "geometry": { "type": "Point", "coordinates": [ -0.1149584, 51.5122712 ] } },
{ "type": "Feature", "properties": { "date": "2019-09-25", "time": "2019-09-25 18:27:03", "year": 2019, "month": 9, "day": 25, "hour": 18, "minute": 27, "second": 3, "from_user": 4241256168, "filename": "lfw2019", "compound_sentiment": 0.0, "city_name": "London, United Kingdom", "zipcode": "WC2R 1EA", "streetaddress": "180 strand", "latitude": 51.5122712, "longitude": -0.1149584 }, "geometry": { "type": "Point", "coordinates": [ -0.1149584, 51.5122712 ] } },
{ "type": "Feature", "properties": { "date": "2019-09-25", "time": "2019-09-25 17:30:46", "year": 2019, "month": 9, "day": 25, "hour": 17, "minute": 30, "second": 46, "from_user": 539764830, "filename": "lfw2019", "compound_sentiment": 0.6597, "city_name": "London, United Kingdom", "zipcode": "SE1 9SG", "streetaddress": "32 London Bridge Street", "latitude": 51.5042997, "longitude": -0.0863703 }, "geometry": { "type": "Point", "coordinates": [ -0.0863703, 51.5042997 ] } },
{ "type": "Feature", "properties": { "date": "2019-09-25", "time": "2019-09-25 17:26:02", "year": 2019, "month": 9, "day": 25, "hour": 17, "minute": 26, "second": 2, "from_user": 5474139137, "filename": "lfw2019", "compound_sentiment": -0.0516, "city_name": "London, United Kingdom", "zipcode": "W1T 1", "streetaddress": "The Strand Ste 2", "latitude": 51.5112079, "longitude": -0.1193447 }, "geometry": { "type": "Point", "coordinates": [ -0.1193447, 51.5112079 ] } },
{ "type": "Feature", "properties": { "date": "2019-09-25", "time": "2019-09-25 17:06:53", "year": 2019, "month": 9, "day": 25, "hour": 17, "minute": 6, "second": 53, "from_user": 1973108606, "filename": "lfw2019", "compound_sentiment": 0.8779, "city_name": "London, United Kingdom", "zipcode": "WC1B 4DA", "streetaddress": "3763 Southampton Row ", "latitude": 51.5190076, "longitude": -0.1215615 }, "geometry": { "type": "Point", "coordinates": [ -0.1215615, 51.519007599999988 ] } },
{ "type": "Feature", "properties": { "date": "2019-09-25", "time": "2019-09-25 15:00:16", "year": 2019, "month": 9, "day": 25, "hour": 15, "minute": 0, "second": 16, "from_user": 215833394, "filename": "lfw2019", "compound_sentiment": 0.4404, "city_name": "London, United Kingdom", "zipcode": "W1B 4DY", "streetaddress": "68 Regent Street", "latitude": 51.51, "longitude": -0.135833 }, "geometry": { "type": "Point", "coordinates": [ -0.135833, 51.51 ] } },
{ "type": "Feature", "properties": { "date": "2019-09-25", "time": "2019-09-25 06:42:54", "year": 2019, "month": 9, "day": 25, "hour": 6, "minute": 42, "second": 54, "from_user": 225546011, "filename": "lfw2019", "compound_sentiment": 0.0, "city_name": "London, United Kingdom", "zipcode": "WC2R 1EA", "streetaddress": "180 The Strand", "latitude": 51.5122712, "longitude": -0.1149584 }, "geometry": { "type": "Point", "coordinates": [ -0.1149584, 51.5122712 ] } },
{ "type": "Feature", "properties": { "date": "2019-09-24", "time": "2019-09-24 19:44:42", "year": 2019, "month": 9, "day": 24, "hour": 19, "minute": 44, "second": 42, "from_user": 4241256168, "filename": "lfw2019", "compound_sentiment": 0.0, "city_name": "London, United Kingdom", "zipcode": "WC2R 1EA", "streetaddress": "180 strand", "latitude": 51.5122712, "longitude": -0.1149584 }, "geometry": { "type": "Point", "coordinates": [ -0.1149584, 51.5122712 ] } },
{ "type": "Feature", "properties": { "date": "2019-09-20", "time": "2019-09-20 16:16:08", "year": 2019, "month": 9, "day": 20, "hour": 16, "minute": 16, "second": 8, "from_user": 20254350, "filename": "lfw2019", "compound_sentiment": 0.0, "city_name": "London, United Kingdom", "zipcode": "WC1B 4DA", "streetaddress": "3763 Southampton Row ", "latitude": 51.5190076, "longitude": -0.1215615 }, "geometry": { "type": "Point", "coordinates": [ -0.1215615, 51.519007599999988 ] } },
{ "type": "Feature", "properties": { "date": "2019-09-19", "time": "2019-09-19 17:44:03", "year": 2019, "month": 9, "day": 19, "hour": 17, "minute": 44, "second": 3, "from_user": 20254350, "filename": "lfw2019", "compound_sentiment": 0.0, "city_name": "London, United Kingdom", "zipcode": "WC1B 4DA", "streetaddress": "3763 Southampton Row ", "latitude": 51.5190076, "longitude": -0.1215615 }, "geometry": { "type": "Point", "coordinates": [ -0.1215615, 51.519007599999988 ] } },
{ "type": "Feature", "properties": { "date": "2019-09-18", "time": "2019-09-18 18:56:58", "year": 2019, "month": 9, "day": 18, "hour": 18, "minute": 56, "second": 58, "from_user": 20254350, "filename": "lfw2019", "compound_sentiment": 0.0, "city_name": "London, United Kingdom", "zipcode": "W1B 4DY", "streetaddress": "68 Regent Street", "latitude": 51.51, "longitude": -0.135833 }, "geometry": { "type": "Point", "coordinates": [ -0.135833, 51.51 ] } },
{ "type": "Feature", "properties": { "date": "2019-09-24", "time": "2019-09-24 15:00:14", "year": 2019, "month": 9, "day": 24, "hour": 15, "minute": 0, "second": 14, "from_user": 215833394, "filename": "lfw2019", "compound_sentiment": 0.4939, "city_name": "London, United Kingdom", "zipcode": "W1B 4DY", "streetaddress": "68 Regent Street", "latitude": 51.51, "longitude": -0.135833 }, "geometry": { "type": "Point", "coordinates": [ -0.135833, 51.51 ] } },
{ "type": "Feature", "properties": { "date": "2019-09-24", "time": "2019-09-24 11:48:05", "year": 2019, "month": 9, "day": 24, "hour": 11, "minute": 48, "second": 5, "from_user": 2866514124, "filename": "lfw2019", "compound_sentiment": 0.0, "city_name": "London, United Kingdom", "zipcode": "WC2E 9DD", "streetaddress": "Bow Street", "latitude": 51.5133517, "longitude": -0.1220818 }, "geometry": { "type": "Point", "coordinates": [ -0.1220818, 51.5133517 ] } },
{ "type": "Feature", "properties": { "date": "2019-09-24", "time": "2019-09-24 11:14:38", "year": 2019, "month": 9, "day": 24, "hour": 11, "minute": 14, "second": 38, "from_user": 257028535, "filename": "lfw2019", "compound_sentiment": 0.9601, "city_name": "London, United Kingdom", "zipcode": "WC2R 1LA", "streetaddress": "Strand London", "latitude": 51.5117744, "longitude": -0.1178626 }, "geometry": { "type": "Point", "coordinates": [ -0.1178626, 51.5117744 ] } },
{ "type": "Feature", "properties": { "date": "2019-09-24", "time": "2019-09-24 10:25:32", "year": 2019, "month": 9, "day": 24, "hour": 10, "minute": 25, "second": 32, "from_user": 539764830, "filename": "lfw2019", "compound_sentiment": 0.9938, "city_name": "London, United Kingdom", "zipcode": "W1K 7AA", "streetaddress": "140 Park Lane", "latitude": 51.5131428, "longitude": -0.1576714 }, "geometry": { "type": "Point", "coordinates": [ -0.1576714, 51.5131428 ] } },
{ "type": "Feature", "properties": { "date": "2019-09-24", "time": "2019-09-24 08:30:59", "year": 2019, "month": 9, "day": 24, "hour": 8, "minute": 30, "second": 59, "from_user": 2019037389, "filename": "lfw2019", "compound_sentiment": 0.0, "city_name": "London, United Kingdom", "zipcode": "WC2R 1EA", "streetaddress": "180 strand", "latitude": 51.5122712, "longitude": -0.1149584 }, "geometry": { "type": "Point", "coordinates": [ -0.1149584, 51.5122712 ] } },
{ "type": "Feature", "properties": { "date": "2019-09-23", "time": "2019-09-23 20:53:47", "year": 2019, "month": 9, "day": 23, "hour": 20, "minute": 53, "second": 47, "from_user": 1557943347, "filename": "lfw2019", "compound_sentiment": 0.0, "city_name": "London, United Kingdom", "zipcode": "WC2R 1EA", "streetaddress": "180 The Strand", "latitude": 51.5122712, "longitude": -0.1149584 }, "geometry": { "type": "Point", "coordinates": [ -0.1149584, 51.5122712 ] } },
{ "type": "Feature", "properties": { "date": "2019-09-23", "time": "2019-09-23 19:55:34", "year": 2019, "month": 9, "day": 23, "hour": 19, "minute": 55, "second": 34, "from_user": 6922347186, "filename": "lfw2019", "compound_sentiment": 0.0, "city_name": "London, United Kingdom", "zipcode": "WC2R 1EA", "streetaddress": "180 The Strand", "latitude": 51.5122712, "longitude": -0.1149584 }, "geometry": { "type": "Point", "coordinates": [ -0.1149584, 51.5122712 ] } },
{ "type": "Feature", "properties": { "date": "2019-09-23", "time": "2019-09-23 19:53:54", "year": 2019, "month": 9, "day": 23, "hour": 19, "minute": 53, "second": 54, "from_user": 6922347186, "filename": "lfw2019", "compound_sentiment": 0.0, "city_name": "London, United Kingdom", "zipcode": "WC2R 1EA", "streetaddress": "180 The Strand", "latitude": 51.5122712, "longitude": -0.1149584 }, "geometry": { "type": "Point", "coordinates": [ -0.1149584, 51.5122712 ] } },
{ "type": "Feature", "properties": { "date": "2019-09-23", "time": "2019-09-23 19:51:08", "year": 2019, "month": 9, "day": 23, "hour": 19, "minute": 51, "second": 8, "from_user": 6922347186, "filename": "lfw2019", "compound_sentiment": 0.4588, "city_name": "London, United Kingdom", "zipcode": "WC2R 1EA", "streetaddress": "180 The Strand", "latitude": 51.5122712, "longitude": -0.1149584 }, "geometry": { "type": "Point", "coordinates": [ -0.1149584, 51.5122712 ] } },
{ "type": "Feature", "properties": { "date": "2019-09-23", "time": "2019-09-23 19:48:41", "year": 2019, "month": 9, "day": 23, "hour": 19, "minute": 48, "second": 41, "from_user": 6922347186, "filename": "lfw2019", "compound_sentiment": 0.0, "city_name": "London, United Kingdom", "zipcode": "WC2R 1EA", "streetaddress": "180 The Strand", "latitude": 51.5122712, "longitude": -0.1149584 }, "geometry": { "type": "Point", "coordinates": [ -0.1149584, 51.5122712 ] } },
{ "type": "Feature", "properties": { "date": "2019-09-23", "time": "2019-09-23 19:48:07", "year": 2019, "month": 9, "day": 23, "hour": 19, "minute": 48, "second": 7, "from_user": 6922347186, "filename": "lfw2019", "compound_sentiment": 0.0, "city_name": "London, United Kingdom", "zipcode": "WC2R 1EA", "streetaddress": "180 The Strand", "latitude": 51.5122712, "longitude": -0.1149584 }, "geometry": { "type": "Point", "coordinates": [ -0.1149584, 51.5122712 ] } },
{ "type": "Feature", "properties": { "date": "2019-09-23", "time": "2019-09-23 19:46:36", "year": 2019, "month": 9, "day": 23, "hour": 19, "minute": 46, "second": 36, "from_user": 6922347186, "filename": "lfw2019", "compound_sentiment": 0.0, "city_name": "London, United Kingdom", "zipcode": "WC2R 1EA", "streetaddress": "180 The Strand", "latitude": 51.5122712, "longitude": -0.1149584 }, "geometry": { "type": "Point", "coordinates": [ -0.1149584, 51.5122712 ] } },
{ "type": "Feature", "properties": { "date": "2019-09-23", "time": "2019-09-23 19:45:21", "year": 2019, "month": 9, "day": 23, "hour": 19, "minute": 45, "second": 21, "from_user": 6922347186, "filename": "lfw2019", "compound_sentiment": 0.0, "city_name": "London, United Kingdom", "zipcode": "WC2R 1EA", "streetaddress": "180 The Strand", "latitude": 51.5122712, "longitude": -0.1149584 }, "geometry": { "type": "Point", "coordinates": [ -0.1149584, 51.5122712 ] } },
{ "type": "Feature", "properties": { "date": "2019-09-23", "time": "2019-09-23 19:36:16", "year": 2019, "month": 9, "day": 23, "hour": 19, "minute": 36, "second": 16, "from_user": 6922347186, "filename": "lfw2019", "compound_sentiment": 0.0, "city_name": "London, United Kingdom", "zipcode": "WC2R 1EA", "streetaddress": "180 The Strand", "latitude": 51.5122712, "longitude": -0.1149584 }, "geometry": { "type": "Point", "coordinates": [ -0.1149584, 51.5122712 ] } },
{ "type": "Feature", "properties": { "date": "2019-09-23", "time": "2019-09-23 18:10:38", "year": 2019, "month": 9, "day": 23, "hour": 18, "minute": 10, "second": 38, "from_user": 705817875, "filename": "lfw2019", "compound_sentiment": 0.0, "city_name": "London, United Kingdom", "zipcode": "WC2H 8DW", "streetaddress": "57 Grape Street", "latitude": 51.5165269, "longitude": -0.1257836 }, "geometry": { "type": "Point", "coordinates": [ -0.1257836, 51.5165269 ] } },
{ "type": "Feature", "properties": { "date": "2019-09-23", "time": "2019-09-23 18:10:02", "year": 2019, "month": 9, "day": 23, "hour": 18, "minute": 10, "second": 2, "from_user": 1378157478, "filename": "lfw2019", "compound_sentiment": 0.5267, "city_name": "London, United Kingdom", "zipcode": "W2 1JU", "streetaddress": "225 Edgware Road", "latitude": 51.519376, "longitude": -0.1695259 }, "geometry": { "type": "Point", "coordinates": [ -0.1695259, 51.519376 ] } },
{ "type": "Feature", "properties": { "date": "2019-09-23", "time": "2019-09-23 16:34:00", "year": 2019, "month": 9, "day": 23, "hour": 16, "minute": 34, "second": 0, "from_user": 2259535083, "filename": "lfw2019", "compound_sentiment": 0.6369, "city_name": "London, United Kingdom", "zipcode": "WC2R 1EA", "streetaddress": "180 strand", "latitude": 51.5122712, "longitude": -0.1149584 }, "geometry": { "type": "Point", "coordinates": [ -0.1149584, 51.5122712 ] } },
{ "type": "Feature", "properties": { "date": "2019-09-23", "time": "2019-09-23 15:52:12", "year": 2019, "month": 9, "day": 23, "hour": 15, "minute": 52, "second": 12, "from_user": 231276312, "filename": "lfw2019", "compound_sentiment": 0.0, "city_name": "London, United Kingdom", "zipcode": "EC4M 8AD", "streetaddress": "st pauls churchyard", "latitude": 51.5132913, "longitude": -0.098709 }, "geometry": { "type": "Point", "coordinates": [ -0.098709, 51.5132913 ] } },
{ "type": "Feature", "properties": { "date": "2019-09-23", "time": "2019-09-23 14:23:35", "year": 2019, "month": 9, "day": 23, "hour": 14, "minute": 23, "second": 35, "from_user": 4316944, "filename": "lfw2019", "compound_sentiment": 0.0, "city_name": "London, United Kingdom", "zipcode": "WC2R 2", "streetaddress": "Somerset House South Wing Strand", "latitude": 51.5107247, "longitude": -0.1168014 }, "geometry": { "type": "Point", "coordinates": [ -0.1168014, 51.5107247 ] } },
{ "type": "Feature", "properties": { "date": "2019-09-23", "time": "2019-09-23 11:56:26", "year": 2019, "month": 9, "day": 23, "hour": 11, "minute": 56, "second": 26, "from_user": 2916978997, "filename": "lfw2019", "compound_sentiment": 0.743, "city_name": "London, United Kingdom", "zipcode": "SE1 3JW", "streetaddress": "6 Crucifix Lane", "latitude": 51.5022313, "longitude": -0.0818626 }, "geometry": { "type": "Point", "coordinates": [ -0.0818626, 51.5022313 ] } },
{ "type": "Feature", "properties": { "date": "2019-09-23", "time": "2019-09-23 11:32:53", "year": 2019, "month": 9, "day": 23, "hour": 11, "minute": 32, "second": 53, "from_user": 203977756, "filename": "lfw2019", "compound_sentiment": 0.7943, "city_name": "London, United Kingdom", "zipcode": "W1K 1ND", "streetaddress": "14 Old Park Lane", "latitude": 51.5047704, "longitude": -0.1493226 }, "geometry": { "type": "Point", "coordinates": [ -0.1493226, 51.5047704 ] } },
{ "type": "Feature", "properties": { "date": "2019-09-23", "time": "2019-09-23 11:09:57", "year": 2019, "month": 9, "day": 23, "hour": 11, "minute": 9, "second": 57, "from_user": 190120270, "filename": "lfw2019", "compound_sentiment": 0.0, "city_name": "London, United Kingdom", "zipcode": "WC2R 1EA", "streetaddress": "180 strand", "latitude": 51.5122712, "longitude": -0.1149584 }, "geometry": { "type": "Point", "coordinates": [ -0.1149584, 51.5122712 ] } },
{ "type": "Feature", "properties": { "date": "2019-09-23", "time": "2019-09-23 10:19:06", "year": 2019, "month": 9, "day": 23, "hour": 10, "minute": 19, "second": 6, "from_user": 289735088, "filename": "lfw2019", "compound_sentiment": 0.5994, "city_name": "London, United Kingdom", "zipcode": "WC2R 1EA", "streetaddress": "180 The Strand", "latitude": 51.5122712, "longitude": -0.1149584 }, "geometry": { "type": "Point", "coordinates": [ -0.1149584, 51.5122712 ] } },
{ "type": "Feature", "properties": { "date": "2019-09-23", "time": "2019-09-23 09:58:40", "year": 2019, "month": 9, "day": 23, "hour": 9, "minute": 58, "second": 40, "from_user": 2129800517, "filename": "lfw2019", "compound_sentiment": 0.9859, "city_name": "London, United Kingdom", "zipcode": "WC2E 9DD", "streetaddress": "Bow Street", "latitude": 51.5133517, "longitude": -0.1220818 }, "geometry": { "type": "Point", "coordinates": [ -0.1220818, 51.5133517 ] } },
{ "type": "Feature", "properties": { "date": "2019-09-23", "time": "2019-09-23 09:44:41", "year": 2019, "month": 9, "day": 23, "hour": 9, "minute": 44, "second": 41, "from_user": 539764830, "filename": "lfw2019", "compound_sentiment": 0.0, "city_name": "London, United Kingdom", "zipcode": "W1K 7AA", "streetaddress": "140 Park Lane", "latitude": 51.5131428, "longitude": -0.1576714 }, "geometry": { "type": "Point", "coordinates": [ -0.1576714, 51.5131428 ] } },
{ "type": "Feature", "properties": { "date": "2019-09-23", "time": "2019-09-23 06:07:12", "year": 2019, "month": 9, "day": 23, "hour": 6, "minute": 7, "second": 12, "from_user": 338415591, "filename": "lfw2019", "compound_sentiment": 0.1531, "city_name": "London, United Kingdom", "zipcode": "WC2R 1EA", "streetaddress": "180 strand", "latitude": 51.5122712, "longitude": -0.1149584 }, "geometry": { "type": "Point", "coordinates": [ -0.1149584, 51.5122712 ] } },
{ "type": "Feature", "properties": { "date": "2019-09-22", "time": "2019-09-22 08:54:35", "year": 2019, "month": 9, "day": 22, "hour": 8, "minute": 54, "second": 35, "from_user": 705817875, "filename": "lfw2019", "compound_sentiment": 0.3612, "city_name": "London, United Kingdom", "zipcode": "WC2R 1EA", "streetaddress": "180 The Strand", "latitude": 51.5122712, "longitude": -0.1149584 }, "geometry": { "type": "Point", "coordinates": [ -0.1149584, 51.5122712 ] } },
{ "type": "Feature", "properties": { "date": "2019-09-20", "time": "2019-09-20 13:06:33", "year": 2019, "month": 9, "day": 20, "hour": 13, "minute": 6, "second": 33, "from_user": 293916878, "filename": "lfw2019", "compound_sentiment": 0.0, "city_name": "London, United Kingdom", "zipcode": "WC1B 4DA", "streetaddress": "3763 Southampton Row ", "latitude": 51.5190076, "longitude": -0.1215615 }, "geometry": { "type": "Point", "coordinates": [ -0.1215615, 51.519007599999988 ] } },
{ "type": "Feature", "properties": { "date": "2019-09-20", "time": "2019-09-20 13:06:04", "year": 2019, "month": 9, "day": 20, "hour": 13, "minute": 6, "second": 4, "from_user": 293916878, "filename": "lfw2019", "compound_sentiment": 0.0, "city_name": "London, United Kingdom", "zipcode": "WC1B 4DA", "streetaddress": "3763 Southampton Row ", "latitude": 51.5190076, "longitude": -0.1215615 }, "geometry": { "type": "Point", "coordinates": [ -0.1215615, 51.519007599999988 ] } },
{ "type": "Feature", "properties": { "date": "2019-09-20", "time": "2019-09-20 13:05:41", "year": 2019, "month": 9, "day": 20, "hour": 13, "minute": 5, "second": 41, "from_user": 293916878, "filename": "lfw2019", "compound_sentiment": 0.0, "city_name": "London, United Kingdom", "zipcode": "WC1B 4DA", "streetaddress": "3763 Southampton Row ", "latitude": 51.5190076, "longitude": -0.1215615 }, "geometry": { "type": "Point", "coordinates": [ -0.1215615, 51.519007599999988 ] } },
{ "type": "Feature", "properties": { "date": "2019-09-20", "time": "2019-09-20 13:05:17", "year": 2019, "month": 9, "day": 20, "hour": 13, "minute": 5, "second": 17, "from_user": 293916878, "filename": "lfw2019", "compound_sentiment": 0.0, "city_name": "London, United Kingdom", "zipcode": "WC1B 4DA", "streetaddress": "3763 Southampton Row ", "latitude": 51.5190076, "longitude": -0.1215615 }, "geometry": { "type": "Point", "coordinates": [ -0.1215615, 51.519007599999988 ] } },
{ "type": "Feature", "properties": { "date": "2019-09-20", "time": "2019-09-20 10:26:27", "year": 2019, "month": 9, "day": 20, "hour": 10, "minute": 26, "second": 27, "from_user": 18740790198, "filename": "lfw2019", "compound_sentiment": 0.0, "city_name": "London, United Kingdom", "zipcode": "SW1X 7XL", "streetaddress": "Harrods", "latitude": 51.499426, "longitude": -0.1640448 }, "geometry": { "type": "Point", "coordinates": [ -0.1640448, 51.499426 ] } },
{ "type": "Feature", "properties": { "date": "2019-09-16", "time": "2019-09-16 14:04:40", "year": 2019, "month": 9, "day": 16, "hour": 14, "minute": 4, "second": 40, "from_user": 8084365654, "filename": "lfw2019", "compound_sentiment": 0.0, "city_name": "London, United Kingdom", "zipcode": "WC1B 4DA", "streetaddress": "3763 Southampton Row ", "latitude": 51.5190076, "longitude": -0.1215615 }, "geometry": { "type": "Point", "coordinates": [ -0.1215615, 51.519007599999988 ] } },
{ "type": "Feature", "properties": { "date": "2019-09-22", "time": "2019-09-22 20:02:40", "year": 2019, "month": 9, "day": 22, "hour": 20, "minute": 2, "second": 40, "from_user": 11869827751, "filename": "lfw2019", "compound_sentiment": 0.0, "city_name": "London, United Kingdom", "zipcode": "WC2R 1EA", "streetaddress": "180 strand", "latitude": 51.5122712, "longitude": -0.1149584 }, "geometry": { "type": "Point", "coordinates": [ -0.1149584, 51.5122712 ] } },
{ "type": "Feature", "properties": { "date": "2019-09-22", "time": "2019-09-22 19:03:47", "year": 2019, "month": 9, "day": 22, "hour": 19, "minute": 3, "second": 47, "from_user": 4106824799, "filename": "lfw2019", "compound_sentiment": 0.9315, "city_name": "London, United Kingdom", "zipcode": "EC1R 0HU", "streetaddress": "42 Northampton Road", "latitude": 51.5255104, "longitude": -0.1073297 }, "geometry": { "type": "Point", "coordinates": [ -0.1073297, 51.525510399999987 ] } },
{ "type": "Feature", "properties": { "date": "2019-09-22", "time": "2019-09-22 18:18:36", "year": 2019, "month": 9, "day": 22, "hour": 18, "minute": 18, "second": 36, "from_user": 1557943347, "filename": "lfw2019", "compound_sentiment": 0.0, "city_name": "London, United Kingdom", "zipcode": "WC2R 1EA", "streetaddress": "180 The Strand", "latitude": 51.5122712, "longitude": -0.1149584 }, "geometry": { "type": "Point", "coordinates": [ -0.1149584, 51.5122712 ] } },
{ "type": "Feature", "properties": { "date": "2019-09-22", "time": "2019-09-22 17:34:40", "year": 2019, "month": 9, "day": 22, "hour": 17, "minute": 34, "second": 40, "from_user": 9288722, "filename": "lfw2019", "compound_sentiment": 0.9001, "city_name": "London, United Kingdom", "zipcode": "W1J 8LT", "streetaddress": "Stratton St Mayfair", "latitude": 51.5075187, "longitude": -0.1439295 }, "geometry": { "type": "Point", "coordinates": [ -0.1439295, 51.5075187 ] } },
{ "type": "Feature", "properties": { "date": "2019-09-22", "time": "2019-09-22 16:38:06", "year": 2019, "month": 9, "day": 22, "hour": 16, "minute": 38, "second": 6, "from_user": 1705904872, "filename": "lfw2019", "compound_sentiment": 0.0, "city_name": "London, United Kingdom", "zipcode": "NW1 5LS ", "streetaddress": "Ambika P3 University of Westminster 35 Marylebone Road", "latitude": 51.522183, "longitude": -0.1559355 }, "geometry": { "type": "Point", "coordinates": [ -0.1559355, 51.522183 ] } },
{ "type": "Feature", "properties": { "date": "2019-09-22", "time": "2019-09-22 15:24:57", "year": 2019, "month": 9, "day": 22, "hour": 15, "minute": 24, "second": 57, "from_user": 309544799, "filename": "lfw2019", "compound_sentiment": 0.3818, "city_name": "London, United Kingdom", "zipcode": "WC1B 4DA", "streetaddress": "3763 Southampton Row ", "latitude": 51.5190076, "longitude": -0.1215615 }, "geometry": { "type": "Point", "coordinates": [ -0.1215615, 51.519007599999988 ] } },
{ "type": "Feature", "properties": { "date": "2019-09-22", "time": "2019-09-22 13:40:13", "year": 2019, "month": 9, "day": 22, "hour": 13, "minute": 40, "second": 13, "from_user": 7804506951, "filename": "lfw2019", "compound_sentiment": 0.128, "city_name": "London, United Kingdom", "zipcode": "SW3 5UZ", "streetaddress": "354 Kings Road", "latitude": 51.4845416, "longitude": -0.1759967 }, "geometry": { "type": "Point", "coordinates": [ -0.1759967, 51.4845416 ] } },
{ "type": "Feature", "properties": { "date": "2019-09-22", "time": "2019-09-22 13:12:32", "year": 2019, "month": 9, "day": 22, "hour": 13, "minute": 12, "second": 32, "from_user": 229281292, "filename": "lfw2019", "compound_sentiment": 0.0, "city_name": "London, United Kingdom", "zipcode": "WC2R 0EZ", "streetaddress": "The Savoy Strand", "latitude": 51.5104568, "longitude": -0.1210495 }, "geometry": { "type": "Point", "coordinates": [ -0.1210495, 51.5104568 ] } },
{ "type": "Feature", "properties": { "date": "2019-09-22", "time": "2019-09-22 12:04:09", "year": 2019, "month": 9, "day": 22, "hour": 12, "minute": 4, "second": 9, "from_user": 3073841378, "filename": "lfw2019", "compound_sentiment": 0.4199, "city_name": "London, United Kingdom", "zipcode": "WC2R 1EA", "streetaddress": "180 The Strand", "latitude": 51.5122712, "longitude": -0.1149584 }, "geometry": { "type": "Point", "coordinates": [ -0.1149584, 51.5122712 ] } },
{ "type": "Feature", "properties": { "date": "2019-09-22", "time": "2019-09-22 09:52:55", "year": 2019, "month": 9, "day": 22, "hour": 9, "minute": 52, "second": 55, "from_user": 9376931146, "filename": "lfw2019", "compound_sentiment": 0.8481, "city_name": "London, United Kingdom", "zipcode": "WC2R 1EA", "streetaddress": "180 strand", "latitude": 51.5122712, "longitude": -0.1149584 }, "geometry": { "type": "Point", "coordinates": [ -0.1149584, 51.5122712 ] } },
{ "type": "Feature", "properties": { "date": "2019-09-22", "time": "2019-09-22 08:48:50", "year": 2019, "month": 9, "day": 22, "hour": 8, "minute": 48, "second": 50, "from_user": 196802586, "filename": "lfw2019", "compound_sentiment": 0.0, "city_name": "London, United Kingdom", "zipcode": "WC2R 1EA", "streetaddress": "180 strand", "latitude": 51.5122712, "longitude": -0.1149584 },